FULL_FIPS,id,name,address,zip_code,city,state,Latitude,Longitude,Accuracy Score,Accuracy Type,Number,Street,City,State,County,Zip,Country,Source,Census Year,State FIPS,County FIPS,Place FIPS,Census Tract Code,Census Block Code,Census Block Group,Metro/Micro Statistical Area Name,Metro/Micro Statistical Area Code,Metro/Micro Statistical Area Type,Combined Statistical Area Name,Combined Statistical Area Code
14000US25017363102,1,Acton*,145 Great Road,1720,Acton,MA,42.482938,-71.412983,1,rooftop,145,Great Rd,Acton,MA,Middlesex County,1720,US,"Office of Geographic Information (MassGIS), Commonwealth of Massachusetts, MassIT",2015,25,25017,2500310,363102,1003,1,"Boston-Cambridge-Newton, MA-NH",14460,metropolitan,"Boston-Worcester-Providence, MA-RI-NH-CT",148
14000US12011110336,2,Pembroke Pines -,11960 Pines Blvd,33026,Pembroke Pines,FL,26.00598,-80.311002,1,rooftop,11960,Pines Blvd,Hollywood,FL,Broward County,33026,US,Broward,2015,12,12011,1232000,110336,1001,1,"Miami-Fort Lauderdale-West Palm Beach, FL",33100,metropolitan,"Miami-Fort Lauderdale-Port St. Lucie, FL",370
14000US27053026403,3,Minnetonka,11220 Wayzata Blvd,55305,Minnetonka,MN,44.97341,-93.42272,1,rooftop,11220,Wayzata Blvd,Hopkins,MN,Hennepin County,55305,US,Hennepin,2015,27,27053,2730140,026403,1000,1,"Minneapolis-St. Paul-Bloomington, MN-WI",33460,metropolitan,"Minneapolis-St. Paul, MN-WI",378
14000US17089850105,4,Algonquin,1800 South Randall Road,60102,Algonquin,IL,42.152858,-88.339798,0.8,rooftop,1800,Randall Rd,Algonquin,IL,Kane County,60102,US,Kane,2015,17,17089,1700685,850105,1008,1,"Chicago-Naperville-Elgin, IL-IN-WI",16980,metropolitan,"Chicago-Naperville, IL-IN-WI",176
14000US25009208300,5,Saugus*,"358 Broadway, Unit B",1906,Saugus,MA,42.483514,-71.017595,1,rooftop,358,Broadway,Saugus,MA,Essex County,1906,US,"Office of Geographic Information (MassGIS), Commonwealth of Massachusetts, MassIT",2015,25,25009,2560015,208300,4002,4,"Boston-Cambridge-Newton, MA-NH",14460,metropolitan,"Boston-Worcester-Providence, MA-RI-NH-CT",148
14000US17031050600,6,Chicago,3745 North Lincoln Avenue,60613,Chicago,IL,41.950177,-87.675364,1,rooftop,3745,N Lincoln Ave,Chicago,IL,Cook County,60613,US,City of Chicago,2015,17,17031,1714000,050600,2002,2,"Chicago-Naperville-Elgin, IL-IN-WI",16980,metropolitan,"Chicago-Naperville, IL-IN-WI",176
14000US27053026710,7,Maple Grove,12105 Elm Creek Blvd. N.,55369,Maple Grove,MN,45.092141,-93.433978,1,rooftop,12105,Elm Creek Blvd N,Osseo,MN,Hennepin County,55369,US,Hennepin,2015,27,27053,2749012,026710,5015,5,"Minneapolis-St. Paul-Bloomington, MN-WI",33460,metropolitan,"Minneapolis-St. Paul, MN-WI",378
14000US26161405200,8,Ann Arbor,2398 East Stadium Blvd.,48104,Ann Arbor,MI,42.259479,-83.713591,1,range_interpolation,2398,E Stadium Blvd,Ann Arbor,MI,Washtenaw County,48104,US,TIGER/Line® dataset from the US Census Bureau,2015,26,26161,2603000,405200,3000,3,"Ann Arbor, MI",11460,metropolitan,"Detroit-Warren-Ann Arbor, MI",220
14000US36029009200,9,Amherst,1565 Niagara Falls Blvd,14228,Buffalo,NY,42.998461,-78.82226,1,rooftop,1565,Niagara Falls Blvd,Buffalo,NY,Erie County,14228,US,"NYS GIS Program Office, State Geographic Information Officer (GIO)",2015,36,36029,3611000,009200,3003,3,"Buffalo-Cheektowaga-Niagara Falls, NY",15380,metropolitan,"Buffalo-Cheektowaga, NY",160
14000US32003005843,10,Las Vegas (Summerlin West) –,2315 Summa Dr,89135,Las Vegas,NV,36.145631,-115.335115,1,rooftop,2315,Summa Dr,Las Vegas,NV,Clark County,89135,US,Las Vegas,2015,32,32003,3240000,005843,1009,1,"Las Vegas-Henderson-Paradise, NV",29820,metropolitan,"Las Vegas-Henderson, NV-AZ",332
14000US27163071010,11,Woodbury,8960 Hudson Road Ste. 801,55125,Woodbury,MN,44.943579,-92.92458,1,range_interpolation,8960,Hudson Rd,Saint Paul,MN,Washington County,55125,US,TIGER/Line® dataset from the US Census Bureau,2015,27,27163,2758000,071010,3004,3,"Minneapolis-St. Paul-Bloomington, MN-WI",33460,metropolitan,"Minneapolis-St. Paul, MN-WI",378
14000US42091205400,12,Ardmore*,112 Coulter Avenue,19003,Ardmore,PA,40.007738,-75.28618,1,range_interpolation,112,Coulter Ave,Ardmore,PA,Montgomery County,19003,US,TIGER/Line® dataset from the US Census Bureau,2015,42,42091,4202896,205400,4008,4,"Philadelphia-Camden-Wilmington, PA-NJ-DE-MD",37980,metropolitan,"Philadelphia-Reading-Camden, PA-NJ-DE-MD",428
14000US34021004301,13,Princeton,3528 US 1 (Brunswick Pike),8540,Princeton,NJ,40.310433,-74.662971,1,rooftop,3528,Brunswick Pike,Princeton,NJ,Mercer County,8540,US,"NJ Office of Information Technology (NJOIT), Office of Geographic Information Systems (OGIS)",2015,34,34021,3460900,004301,3027,3,"Trenton, NJ",45940,metropolitan,"New York-Newark, NY-NJ-CT-PA",408
14000US33011011102,14,Nashua,262 Daniel Webster HWY,3060,Nashua,NH,42.708162,-71.438405,1,rooftop,262,Daniel Webster Hwy,Nashua,NH,Hillsborough County,3060,US,City of Nashua,2015,33,33011,3350260,011102,2003,2,"Manchester-Nashua, NH",31700,metropolitan,"Boston-Worcester-Providence, MA-RI-NH-CT",148
14000US12099007505,15,Boca Raton,855 S Federal Hwy,33432,Boca Raton,FL,26.342329,-80.086958,1,rooftop,855,S Federal Hwy,Boca Raton,FL,Palm Beach County,33432,US,Palm Beach County,2015,12,12099,1207300,007505,2022,2,"Miami-Fort Lauderdale-West Palm Beach, FL",33100,metropolitan,"Miami-Fort Lauderdale-Port St. Lucie, FL",370
14000US19049050811,16,West Des Moines,6305 Mills Civic Parkway,50266,West Des Moines,IA,41.560882,-93.795144,1,rooftop,6305,Mills Civic Pkwy,West Des Moines,IA,Dallas County,50266,US,Dallas,2015,19,19049,1983910,050811,2126,2,"Des Moines-West Des Moines, IA",19780,metropolitan,"Des Moines-Ames-West Des Moines, IA",218
14000US39061024001,17,Cincinnati,7788 Montgomery Road,45236,Cincinnati,OH,39.197372,-84.381737,1,rooftop,7788,Montgomery Rd,Cincinnati,OH,Hamilton County,45236,US,Hamilton,2015,39,39061,3915000,024001,6000,6,"Cincinnati, OH-KY-IN",17140,metropolitan,"Cincinnati-Wilmington-Maysville, OH-KY-IN",178
14000US25001015300,18,Hyannis*,"655 Route 132, Unit 4-A",2601,Hyannis,MA,41.65289,-70.2828,0.33,place,0,0,Hyannis,MA,Barnstable County,2601,US,TIGER/Line® dataset from the US Census Bureau,2015,25,25001,2531820,015300,2023,2,"Barnstable Town, MA",12700,metropolitan,"Boston-Worcester-Providence, MA-RI-NH-CT",148
14000US35001003732,19,Albuquerque,8928 Holly Ave. NE,87122,Albuquerque,NM,35.175207,-106.542933,0.9,rooftop,8928,Holly Ave NE,Albuquerque,NM,Bernalillo County,87113,US,Albuquerque,2015,35,35001,3502000,003732,2032,2,"Albuquerque, NM",10740,metropolitan,"Albuquerque-Santa Fe-Las Vegas, NM",106
14000US41005021601,20,Clackamas,9345 SE 82nd Ave,97086,Happy Valley,OR,45.451595,-122.579165,1,range_interpolation,9345,SE 82nd Ave,Happy Valley,OR,Clackamas County,97086,US,TIGER/Line® dataset from the US Census Bureau,2015,41,41005,0,021601,2025,2,"Portland-Vancouver-Hillsboro, OR-WA",38900,metropolitan,"Portland-Vancouver-Salem, OR-WA",440
14000US21111010602,21,Louisville,4600 Shelbyville Road,40207,Louisville,KY,38.250209,-85.631518,1,rooftop,4600,Shelbyville Rd,Louisville,KY,Jefferson County,40207,US,"Metro Louisville,  LOJIC partners",2015,21,21111,2148000,010602,2000,2,"Louisville/Jefferson County, KY-IN",31140,metropolitan,"Louisville/Jefferson County--Elizabethtown--Madison, KY-IN",350
14000US24003702701,22,Annapolis*,160 F Jennifer Road,21401,Annapolis,MD,38.989046,-76.540179,1,rooftop,160,Jennifer Rd,Annapolis,MD,Anne Arundel County,21401,US,Anne Arundel County,2015,24,24003,2401600,702701,1008,1,"Baltimore-Columbia-Towson, MD",12580,metropolitan,"Washington-Baltimore-Arlington, DC-MD-VA-WV-PA",548
14000US31109003708,23,Lincoln,"3120 Pine Lake Road, Suite R",68516,Lincoln,NE,40.742228,-96.674543,1,rooftop,3120,Pine Lake Rd,Lincoln,NE,Lancaster County,68516,US,Lincoln,2015,31,31109,3128000,003708,2016,2,"Lincoln, NE",30700,metropolitan,"Lincoln-Beatrice, NE",339
14000US44003022100,24,Warwick*,1000 Bald Hill Rd,2886,Warwick,RI,41.712701,-71.488009,1,rooftop,1000,Bald Hill Rd,Warwick,RI,Kent County,2886,US,Statewide,2015,44,44003,4474300,022100,3051,3,"Providence-Warwick, RI-MA",39300,metropolitan,"Boston-Worcester-Providence, MA-RI-NH-CT",148
14000US18097320304,25,Indianapolis (Castleton),5473 East 82nd Street,46250,Indianapolis,IN,39.90382,-86.075201,1,rooftop,5473,E 82nd St,Indianapolis,IN,Marion County,46250,US,Statewide,2015,18,18097,1836000,320304,1004,1,"Indianapolis-Carmel-Anderson, IN",26900,metropolitan,"Indianapolis-Carmel-Muncie, IN",294
14000US29189217300,26,Brentwood,48 Brentwood Promenade Court,63144,Brentwood,MO,38.627386,-90.341305,1,rooftop,48,Brentwood Promenade Ct,Saint Louis,MO,St. Louis County,63144,US,St Louis,2015,29,29189,2999189,217300,2012,2,"St. Louis, MO-IL",41180,metropolitan,"St. Louis-St. Charles-Farmington, MO-IL",476
14000US22033002601,27,Baton Rouge,3535 Perkins Rd,70808,Baton Rouge,LA,30.421508,-91.153436,1,range_interpolation,3535,Perkins Rd,Baton Rouge,LA,East Baton Rouge Parish,70808,US,TIGER/Line® dataset from the US Census Bureau,2015,22,22033,2205000,002601,1032,1,"Baton Rouge, LA",12940,metropolitan,0,0
14000US39035194800,28,Woodmere,28809 Chagrin Blvd.,44122,Woodmere,OH,41.463296,-81.475446,1,rooftop,28809,Chagrin Blvd,Beachwood,OH,Cuyahoga County,44122,US,Cuyahoga,2015,39,39035,3904500,194800,1000,1,"Cleveland-Elyria, OH",17460,metropolitan,"Cleveland-Akron-Canton, OH",184
14000US42091200505,29,North Wales*,1430 Bethlehem Pike,19454,North Wales,PA,40.207552,-75.224739,1,range_interpolation,1430,Bethlehem Pike,North Wales,PA,Montgomery County,19454,US,TIGER/Line® dataset from the US Census Bureau,2015,42,42091,4255512,200505,2009,2,"Philadelphia-Camden-Wilmington, PA-NJ-DE-MD",37980,metropolitan,"Philadelphia-Reading-Camden, PA-NJ-DE-MD",428
14000US48029120702,30,San Antonio,350 East Basse Road,78209,San Antonio,TX,29.496724,-98.478089,1,rooftop,350,E Basse Rd,San Antonio,TX,Bexar County,78209,US,San Antonio,2015,48,48029,4865000,120702,1011,1,"San Antonio-New Braunfels, TX",41700,metropolitan,0,0
14000US48029191817,31,San Antonio (Sonterra Village),403 North Loop 1604 West,78209,San Antonio,TX,29.609268,-98.48944,0.5,range_interpolation,403,State Loop 1604,San Antonio,TX,Bexar County,78232,US,TIGER/Line® dataset from the US Census Bureau,2015,48,48029,4865000,191817,1064,1,"San Antonio-New Braunfels, TX",41700,metropolitan,0,0
14000US16001000100,32,Boise,300 S Capitol Blvd,83702,Boise,ID,43.613196,-116.203741,1,rooftop,300,S Capitol Blvd,Boise,ID,Ada County,83702,US,City of Boise,2015,16,16001,1608700,000100,2038,2,"Boise City, ID",14260,metropolitan,"Boise City-Mountain Home-Ontario, ID-OR",147
14000US23005000600,33,Portland,87 Marginal Way,4101,Portland,ME,43.664954,-70.260762,0.7,street_center,0,Marginal Way,Portland,ME,Cumberland County,4101,US,TIGER/Line® dataset from the US Census Bureau,2015,23,23005,2360545,000600,2001,2,"Portland-South Portland, ME",38860,metropolitan,"Portland-Lewiston-South Portland, ME",438
14000US27053025605,34,Bloomington,4270 W 78th St,55435,Bloomington,MN,44.858692,-93.340417,1,range_interpolation,4270,W 78th St,Minneapolis,MN,Hennepin County,55435,US,TIGER/Line® dataset from the US Census Bureau,2015,27,27053,2743000,025605,1004,1,"Minneapolis-St. Paul-Bloomington, MN-WI",33460,metropolitan,"Minneapolis-St. Paul, MN-WI",378
14000US12115001804,35,Sarasota,4101 S Tamiami Trail,34231,Sarasota,FL,27.294852,-82.529962,1,rooftop,4101,S Tamiami Trl,Sarasota,FL,Sarasota County,34231,US,Sarasota,2015,12,12115,1264175,001804,2037,2,"North Port-Sarasota-Bradenton, FL",35840,metropolitan,"North Port-Sarasota, FL",412
14000US20091053301,36,Leawood*,4201 W 119th Street,66209,Leawood,KS,38.912558,-94.635891,1,rooftop,4201,W 119th St,Shawnee Mission,KS,Johnson County,66209,US,City of Olathe,2015,20,20091,2064575,053301,2017,2,"Kansas City, MO-KS",28140,metropolitan,"Kansas City-Overland Park-Kansas City, MO-KS",312
14000US34039036600,37,Westfield,155 Elm St.,7090,Westfield,NJ,40.652424,-74.349715,1,rooftop,155,Elm St,Westfield,NJ,Union County,7090,US,"NJ Office of Information Technology (NJOIT), Office of Geographic Information Systems (OGIS)",2015,34,34039,3479040,036600,1008,1,"New York-Newark-Jersey City, NY-NJ-PA",35620,metropolitan,"New York-Newark, NY-NJ-CT-PA",408
14000US12031014204,38,Jacksonville Beach,4180 S 3rd St,32250,Jacksonville Beach,FL,30.280143,-81.416506,0.33,place,0,0,Jacksonville Beach,FL,Duval County,32250,US,TIGER/Line® dataset from the US Census Bureau,2015,12,12031,1235050,014204,3006,3,"Jacksonville, FL",27260,metropolitan,"Jacksonville-St. Marys-Palatka, FL-GA",300
14000US21067002700,39,Lexington Wine & Spirits,2320 Nicholasville Rd,40503,Lexington,KY,38.004923,-84.51815,1,rooftop,2320,Nicholasville Rd,Lexington,KY,Fayette County,40503,US,Lexington Fayette,2015,21,21067,2146000,002700,3007,3,"Lexington-Fayette, KY",30460,metropolitan,"Lexington-Fayette--Richmond--Frankfort, KY",336
14000US13121011417,40,Roswell,635 W. Crossville Road,30075,Roswell,GA,34.057836,-84.379904,1,range_interpolation,635,W Crossville Rd,Roswell,GA,Fulton County,30075,US,TIGER/Line® dataset from the US Census Bureau,2015,13,13121,1367284,011417,3002,3,"Atlanta-Sandy Springs-Roswell, GA",12060,metropolitan,"Atlanta--Athens-Clarke County--Sandy Springs, GA",122
14000US13219030200,41,Athens,1850 Epps Bridge Parkway,30606,Athens,GA,33.914278,-83.447872,1,range_interpolation,1850,Epps Bridge Pkwy,Athens,GA,Oconee County,30606,US,TIGER/Line® dataset from the US Census Bureau,2015,13,13219,1303432,030200,1000,1,"Athens-Clarke County, GA",12020,metropolitan,"Atlanta--Athens-Clarke County--Sandy Springs, GA",122
14000US13135050309,42,Norcross,"5185 Peachtree Parkway, Bld. 1200",30092,Norcross,GA,33.969122,-84.207216,0.3,range_interpolation,5185,S Old Peachtree Rd,Norcross,GA,Gwinnett County,30092,US,TIGER/Line® dataset from the US Census Bureau,2015,13,13135,1355776,050309,4012,4,"Atlanta-Sandy Springs-Roswell, GA",12060,metropolitan,"Atlanta--Athens-Clarke County--Sandy Springs, GA",122
14000US17043846206,43,Naperville,44 West Gartner Road,60540,Naperville,IL,41.754601,-88.140589,1,rooftop,44,W Gartner Rd,Naperville,IL,DuPage County,60540,US,Waco,2015,17,17043,1751622,846206,2004,2,"Chicago-Naperville-Elgin, IL-IN-WI",16980,metropolitan,"Chicago-Naperville, IL-IN-WI",176
14000US25017353300,44,Cambridge,748 Memorial Drive,2139,Cambridge,MA,42.358076,-71.114273,1,rooftop,748,Memorial Dr,Cambridge,MA,Middlesex County,2139,US,City of Cambridge,2015,25,25017,2511000,353300,3004,3,"Boston-Cambridge-Newton, MA-NH",14460,metropolitan,"Boston-Worcester-Providence, MA-RI-NH-CT",148
14000US25021400200,45,Brookline,1317 Beacon Street,2446,Brookline,MA,42.341923,-71.120503,1,rooftop,1317,Beacon St,Brookline,MA,Norfolk County,2446,US,"Office of Geographic Information (MassGIS), Commonwealth of Massachusetts, MassIT",2015,25,25021,2509175,400200,2018,2,"Boston-Cambridge-Newton, MA-NH",14460,metropolitan,"Boston-Worcester-Providence, MA-RI-NH-CT",148
14000US25017383600,46,Framingham,659 Worcester Road,1701,Framingham,MA,42.299163,-71.424777,1,rooftop,659,Worcester Rd,Framingham,MA,Middlesex County,1701,US,"Office of Geographic Information (MassGIS), Commonwealth of Massachusetts, MassIT",2015,25,25017,2524925,383600,4009,4,"Boston-Cambridge-Newton, MA-NH",14460,metropolitan,"Boston-Worcester-Providence, MA-RI-NH-CT",148
14000US18097310104,47,Indianapolis (West 86,2902 West 86th Street,46268,Indianapolis,IN,39.912431,-86.210846,1,rooftop,2902,W 86th St,Indianapolis,IN,Marion County,46268,US,Statewide,2015,18,18097,1836000,310104,3024,3,"Indianapolis-Carmel-Anderson, IN",26900,metropolitan,"Indianapolis-Carmel-Muncie, IN",294
14000US48113013104,48,Dallas,7939 Walnut Hill Lane,75230,Dallas,TX,32.880897,-96.772235,1,rooftop,7939,Walnut Hill Ln,Dallas,TX,Dallas County,75230,US,Dallas,2015,48,48113,4819000,013104,1009,1,"Dallas-Fort Worth-Arlington, TX",19100,metropolitan,"Dallas-Fort Worth, TX-OK",206
14000US06037265202,49,Westwood,1000 Glendon Avenue,90024,Los Angeles,CA,34.062169,-118.44396,1,rooftop,1000,Glendon Ave,Los Angeles,CA,Los Angeles County,90024,US,Los Angeles County,2015,6,06037,644000,265202,3012,3,"Los Angeles-Long Beach-Anaheim, CA",31080,metropolitan,"Los Angeles-Long Beach, CA",348
14000US17031320600,50,Chicago (South Loop),1147 S. Wabash Ave.,60605,Chicago,IL,41.868064,-87.625352,1,rooftop,1147,S Wabash Ave,Chicago,IL,Cook County,60605,US,City of Chicago,2015,17,17031,1714000,320600,1009,1,"Chicago-Naperville-Elgin, IL-IN-WI",16980,metropolitan,"Chicago-Naperville, IL-IN-WI",176
14000US17031070200,51,Chicago (Diversey Pkwy),667 W. Diversey Pkwy,60614,Chicago,IL,41.932438,-87.646227,1,rooftop,667,W Diversey Pkwy,Chicago,IL,Cook County,60614,US,City of Chicago,2015,17,17031,1714000,070200,1001,1,"Chicago-Naperville-Elgin, IL-IN-WI",16980,metropolitan,"Chicago-Naperville, IL-IN-WI",176
14000US06037800327,53,Agoura Hills,28941 Canwood Street,91301,Agoura Hills,CA,34.145684,-118.756928,0.8,range_interpolation,28941,Canwood St,Agoura Hills,CA,Los Angeles County,91301,US,TIGER/Line® dataset from the US Census Bureau,2015,6,06037,600394,800327,1007,1,"Los Angeles-Long Beach-Anaheim, CA",31080,metropolitan,"Los Angeles-Long Beach, CA",348
14000US06059062637,55,Aliso Viejo,26541 Aliso Creek Road,92656,Aliso Viejo,CA,33.575643,-117.723582,1,range_interpolation,26541,Aliso Creek Rd,Aliso Viejo,CA,Orange County,92656,US,TIGER/Line® dataset from the US Census Bureau,2015,6,06059,600947,062637,1006,1,"Los Angeles-Long Beach-Anaheim, CA",31080,metropolitan,"Los Angeles-Long Beach, CA",348
14000US08013012203,60,Boulder,1906 28th St,80301,Boulder,CO,40.020282,-105.258103,1,rooftop,1906,28th,Boulder,CO,Boulder County,80301,US,Statewide,2015,8,08013,807850,012203,4031,4,"Boulder, CO",14500,metropolitan,"Denver-Aurora, CO",216
14000US09001210800,62,Danbury,113 Mill Plain Rd.,6811,Danbury,CT,41.391765,-73.520927,1,range_interpolation,113,Mill Plain Rd,Danbury,CT,Fairfield County,6811,US,TIGER/Line® dataset from the US Census Bureau,2015,9,09001,918430,210800,3030,3,"Bridgeport-Stamford-Norwalk, CT",14860,metropolitan,"New York-Newark, NY-NJ-CT-PA",408
14000US06095252604,63,Fairfield,"1350 Gateway Blvd., Suite A1-A7",94533,Fairfield,CA,38.264243,-122.051738,1,rooftop,1350,Gateway Blvd,Fairfield,CA,Solano County,94533,US,Solano County,2015,6,06095,623182,252604,1006,1,"Vallejo-Fairfield, CA",46700,metropolitan,"San Jose-San Francisco-Oakland, CA",488
14000US06059099508,64,Huntington Harbor,16821 Algonquin St.,92649,Huntington Bch.,CA,33.718001,-118.050248,1,range_interpolation,16821,Algonquin St,Huntington Beach,CA,Orange County,92649,US,TIGER/Line® dataset from the US Census Bureau,2015,6,06059,636000,099508,2003,2,"Los Angeles-Long Beach-Anaheim, CA",31080,metropolitan,"Los Angeles-Long Beach, CA",348
14000US06037195100,68,Los Angeles (Silver Lake),2738 Hyperion Ave.,90027,Los Angeles,CA,34.107669,-118.271787,1,rooftop,2738,Hyperion Ave,Los Angeles,CA,Los Angeles County,90027,US,Los Angeles County,2015,6,06037,644000,195100,2000,2,"Los Angeles-Long Beach-Anaheim, CA",31080,metropolitan,"Los Angeles-Long Beach, CA",348
14000US09009157100,70,Orange,560 Boston Post Road,6477,Orange,CT,41.25234,-73.01908,1,range_interpolation,560,Boston Post Rd,Orange,CT,New Haven County,6477,US,TIGER/Line® dataset from the US Census Bureau,2015,9,09009,957600,157100,1030,1,"New Haven-Milford, CT",35300,metropolitan,"New York-Newark, NY-NJ-CT-PA",408
14000US06037463102,71,Pasadena (Hastings Ranch),467 Rosemead Blvd.,91107,Pasadena,CA,34.138456,-118.073445,1,range_interpolation,467,S Rosemead Blvd,Pasadena,CA,Los Angeles County,91107,US,TIGER/Line® dataset from the US Census Bureau,2015,6,06037,656000,463102,3010,3,"Los Angeles-Long Beach-Anaheim, CA",31080,metropolitan,"Los Angeles-Long Beach, CA",348
14000US06085507905,74,San Jose (Bollinger),7250 Bollinger Rd.,95129,San Jose,CA,37.311787,-122.030929,1,rooftop,7250,Bollinger Rd,San Jose,CA,Santa Clara County,95129,US,City of Cupertino,2015,6,06085,668000,507905,1000,1,"San Jose-Sunnyvale-Santa Clara, CA",41940,metropolitan,"San Jose-San Francisco-Oakland, CA",488
14000US04019003002,75,Tucson,1101 N. Wilmot Rd. Suite #147,85712,Tucson,AZ,32.23707,-110.858741,1,rooftop,1101,N Wilmot Rd,Tucson,AZ,Pima County,85712,US,Pima,2015,4,04019,477000,003002,3000,3,"Tucson, AZ",46060,metropolitan,"Tucson-Nogales, AZ",536
14000US04019002701,76,Tucson,4209 N. Campbell Ave.,85719,Tucson,AZ,32.283366,-110.944713,1,rooftop,4209,N Campbell Ave,Tucson,AZ,Pima County,85719,US,Pima,2015,4,04019,477000,002701,1000,1,"Tucson, AZ",46060,metropolitan,"Tucson-Nogales, AZ",536
14000US06059075603,77,Tustin,12932 Newport Avenue,92780,Tustin,CA,33.749571,-117.809873,1,rooftop,12932,Newport Ave,Tustin,CA,Orange County,92780,US,Orange County,2015,6,06059,680854,075603,3002,3,"Los Angeles-Long Beach-Anaheim, CA",31080,metropolitan,"Los Angeles-Long Beach, CA",348
14000US11001005500,78,Washington,1101 25th Street NW,20037,Washington,DC,38.904199,-77.053015,1,rooftop,1101,25th St NW,Washington,DC,District of Columbia,20037,US,City of Washington,2015,11,11001,1150000,005500,2010,2,"Washington-Arlington-Alexandria, DC-VA-MD-WV",47900,metropolitan,"Washington-Baltimore-Arlington, DC-MD-VA-WV-PA",548
14000US06037700102,80,West Hollywood,7304 Santa Monica Blvd.,90046,West Hollywood,CA,34.090585,-118.348856,1,range_interpolation,7304,Santa Monica Blvd,Los Angeles,CA,Los Angeles County,90046,US,TIGER/Line® dataset from the US Census Bureau,2015,6,06037,644000,700102,2003,2,"Los Angeles-Long Beach-Anaheim, CA",31080,metropolitan,"Los Angeles-Long Beach, CA",348
14000US10003011202,81,Wilmington*,5605 Concord Pike,19803,Wilmington,DE,39.833935,-75.541897,1,rooftop,5605,Concord Pike,Wilmington,DE,New Castle County,19803,US,New Castle,2015,10,10003,1077580,011202,2015,2,"Philadelphia-Camden-Wilmington, PA-NJ-DE-MD",37980,metropolitan,"Philadelphia-Reading-Camden, PA-NJ-DE-MD",428
14000US13121009603,82,Atlanta (Buckhead),3183 Peachtree Rd NE,30305,Atlanta,GA,33.840745,-84.374868,1,rooftop,3183,Peachtree Rd NE,Atlanta,GA,Fulton County,30305,US,City of Atlanta,2015,13,13121,1304000,009603,1002,1,"Atlanta-Sandy Springs-Roswell, GA",12060,metropolitan,"Atlanta--Athens-Clarke County--Sandy Springs, GA",122
14000US13121001300,83,Atlanta (Midtown),"931 Monroe Dr., NE",30308,Atlanta,GA,33.779945,-84.368232,1,rooftop,931,Monroe Dr NE,Atlanta,GA,Fulton County,30308,US,City of Atlanta,2015,13,13121,1304000,001300,1007,1,"Atlanta-Sandy Springs-Roswell, GA",12060,metropolitan,"Atlanta--Athens-Clarke County--Sandy Springs, GA",122
14000US13067030336,84,Marietta,4250 Roswell Road,30062,Marietta,GA,33.983308,-84.426217,1,rooftop,4250,Roswell Rd,Marietta,GA,Cobb County,30062,US,Cobb,2015,13,13067,1349756,030336,3015,3,"Atlanta-Sandy Springs-Roswell, GA",12060,metropolitan,"Atlanta--Athens-Clarke County--Sandy Springs, GA",122
14000US13121010121,86,Sandy Springs,6277 Roswell Road NE,30328,Sandy Springs,GA,33.926217,-84.378323,0.8,rooftop,6277,Roswell Rd,Atlanta,GA,Fulton County,30328,US,City of Sandy Springs,2015,13,13121,1304000,010121,1006,1,"Atlanta-Sandy Springs-Roswell, GA",12060,metropolitan,"Atlanta--Athens-Clarke County--Sandy Springs, GA",122
14000US06075018000,91,San Francisco (9,555 9th Street,94103,San Francisco,CA,37.771028,-122.407314,1,rooftop,555,9th St,San Francisco,CA,San Francisco County,94103,US,San Francisco,2015,6,06075,667000,018000,2030,2,"San Francisco-Oakland-Hayward, CA",41860,metropolitan,"San Jose-San Francisco-Oakland, CA",488
14000US08041000302,94,Colorado Springs –,5342 N Nevada Ave,80918,Colorado Springs,CO,38.906882,-104.816728,1,range_interpolation,5342,N Nevada Ave,Colorado Springs,CO,El Paso County,80918,US,TIGER/Line® dataset from the US Census Bureau,2015,8,08041,816000,000302,2028,2,"Colorado Springs, CO",17820,metropolitan,0,0
14000US12011040702,95,Fort Lauderdale –,1590 N Federal Hwy,33304,Fort Lauderdale,FL,26.147451,-80.118671,0.9,rooftop,1590,N Federal Hwy,Fort Lauderdale,FL,Broward County,33305,US, Loveland,2015,12,12011,1224000,040702,1006,1,"Miami-Fort Lauderdale-West Palm Beach, FL",33100,metropolitan,"Miami-Fort Lauderdale-Port St. Lucie, FL",370
14000US12103023800,96,St. Petersburg –,2742 4th St N,33704,St. Petersburg,FL,27.797437,-82.638959,1,rooftop,2742,4th St N,Saint Petersburg,FL,Pinellas County,33704,US,Pinellas,2015,12,12103,1263000,023800,2013,2,"Tampa-St. Petersburg-Clearwater, FL",45300,metropolitan,0,0
14000US04013116712,97,Ahwatukee,"4025 E. Chandler Blvd., Ste. 38",85048,Ahwatukee,AZ,33.305058,-111.995867,1,range_interpolation,4025,E Chandler Blvd,Phoenix,AZ,Maricopa County,85048,US,TIGER/Line® dataset from the US Census Bureau,2015,4,04013,455000,116712,2004,2,"Phoenix-Mesa-Scottsdale, AZ",38060,metropolitan,0,0
14000US04013617700,98,Glendale,7720 West Bell Road,85308,Glendale,AZ,33.639301,-112.226529,1,rooftop,7720,W Bell Rd,Glendale,AZ,Maricopa County,85308,US,City of Glendale,2015,4,04013,427820,617700,3005,3,"Phoenix-Mesa-Scottsdale, AZ",38060,metropolitan,0,0
14000US04013422503,99,Mesa,2050 East Baseline Rd.,85204,Mesa,AZ,33.380848,-111.787182,1,rooftop,2050,E Baseline Rd,Mesa,AZ,Maricopa County,85204,US,City of Mesa,2015,4,04013,446000,422503,4011,4,"Phoenix-Mesa-Scottsdale, AZ",38060,metropolitan,0,0
14000US04013103208,100,Paradise Valley,4726 E. Shea Blvd.,85028,Phoenix,AZ,33.584326,-111.980049,1,rooftop,4726,E Shea Blvd,Phoenix,AZ,Maricopa County,85028,US,Maricopa,2015,4,04013,455000,103208,1025,1,"Phoenix-Mesa-Scottsdale, AZ",38060,metropolitan,0,0
14000US04013108502,101,Phoenix,4821 N. 20th Street,85016,Phoenix,AZ,33.507104,-112.038714,1,range_interpolation,4821,N 20th St,Phoenix,AZ,Maricopa County,85016,US,TIGER/Line® dataset from the US Census Bureau,2015,4,04013,455000,108502,4002,4,"Phoenix-Mesa-Scottsdale, AZ",38060,metropolitan,0,0
14000US04025000802,102,Prescott,252 Lee Blvd,86303,Prescott,AZ,34.539974,-112.413267,1,range_interpolation,252,Lee Blvd,Prescott,AZ,Yavapai County,86303,US,TIGER/Line® dataset from the US Census Bureau,2015,4,04025,457380,000802,1008,1,"Prescott, AZ",39140,metropolitan,0,0
14000US04013216816,103,Scottsdale (North),7555 E. Frank Lloyd Wright,85260,N. Scottsdale,AZ,33.635961,-111.917166,1,rooftop,7555,E Frank Lloyd Wright Blvd,Scottsdale,AZ,Maricopa County,85260,US,Maricopa,2015,4,04013,465000,216816,1009,1,"Phoenix-Mesa-Scottsdale, AZ",38060,metropolitan,0,0
14000US04013216901,104,Scottsdale,6202 N. Scottsdale Road,85253,Scottsdale,AZ,33.529018,-111.927609,1,rooftop,6202,N Scottsdale Rd,Paradise Valley,AZ,Maricopa County,85253,US,City of Scottsdale,2015,4,04013,452930,216901,2032,2,"Phoenix-Mesa-Scottsdale, AZ",38060,metropolitan,0,0
14000US04013040531,105,Surprise,14095 West Grand Ave.,85374,Surprise,AZ,33.651351,-112.36757,1,rooftop,14095,W Grand Ave,Surprise,AZ,Maricopa County,85374,US,Maricopa,2015,4,04013,471510,040531,1000,1,"Phoenix-Mesa-Scottsdale, AZ",38060,metropolitan,0,0
14000US04013319905,106,Tempe,6460 S. McClintock Drive,85283,Tempe,AZ,33.363105,-111.91137,0.9,range_interpolation,6460,S McClintock Dr,Tempe,AZ,Maricopa County,85281,US,TIGER/Line® dataset from the US Census Bureau,2015,4,04013,473000,319905,2000,2,"Phoenix-Mesa-Scottsdale, AZ",38060,metropolitan,0,0
14000US04019002904,107,Tucson (Crossroads),4766 East Grant Road,85712,Tucson,AZ,32.249797,-110.890958,1,rooftop,4766,E Grant Rd,Tucson,AZ,Pima County,85712,US,Pima,2015,4,04019,477000,002904,3010,3,"Tucson, AZ",46060,metropolitan,"Tucson-Nogales, AZ",536
14000US04019004713,108,Tucson - Oro Valley,7912 N. Oracle,85704,Oro Valley,AZ,32.350487,-110.973219,1,rooftop,7912,N Oracle Rd,Tucson,AZ,Pima County,85704,US,Pima,2015,4,04019,477000,004713,2016,2,"Tucson, AZ",46060,metropolitan,"Tucson-Nogales, AZ",536
14000US06001428400,109,Alameda,2217 South Shore Center,94501,Alameda,CA,37.757662,-122.251426,1,rooftop,2217,S Shore Ctr,Alameda,CA,Alameda County,94501,US,Alameda County,2015,6,06001,600562,428400,1015,1,"San Francisco-Oakland-Hayward, CA",41860,metropolitan,"San Jose-San Francisco-Oakland, CA",488
14000US06079011800,110,Arroyo Grande,955 Rancho Parkway,93420,Arroyo Grande,CA,35.126986,-120.593871,1,range_interpolation,955,Rancho Pkwy,Arroyo Grande,CA,San Luis Obispo County,93420,US,TIGER/Line® dataset from the US Census Bureau,2015,6,06079,602868,011800,3000,3,"San Luis Obispo-Paso Robles-Arroyo Grande, CA",42020,metropolitan,0,0
14000US06029001600,111,Bakersfield,8200-C 21 Stockdale Hwy.,93311,Bakersfield,CA,35.378105,-119.011747,0.8,range_interpolation,8200,21st St,Bakersfield,CA,Kern County,93301,US,TIGER/Line® dataset from the US Census Bureau,2015,6,06029,603526,001600,1054,1,"Bakersfield, CA",12540,metropolitan,0,0
14000US06001422300,112,Berkeley,1885 University Ave.,94703,Berkeley,CA,37.871616,-122.273436,1,range_interpolation,1885,University Ave,Berkeley,CA,Alameda County,94703,US,TIGER/Line® dataset from the US Census Bureau,2015,6,06001,606000,422300,3010,3,"San Francisco-Oakland-Hayward, CA",41860,metropolitan,"San Jose-San Francisco-Oakland, CA",488
14000US06037571900,113,Bixby Knolls,4121 Atlantic Ave.,90807,Bixby Knolls,CA,33.832922,-118.185436,1,rooftop,4121,Atlantic Ave,Long Beach,CA,Los Angeles County,90807,US,City of Long Beach,2015,6,06037,643000,571900,1013,1,"Los Angeles-Long Beach-Anaheim, CA",31080,metropolitan,"Los Angeles-Long Beach, CA",348
14000US06059011707,114,Brea,2500 E. Imperial Hwy. Suite 177,92821,Brea,CA,33.909638,-117.864404,1,rooftop,2500,E Imperial Hwy,Brea,CA,Orange County,92821,US,City of Brea,2015,6,06059,608100,011707,1001,1,"Los Angeles-Long Beach-Anaheim, CA",31080,metropolitan,"Los Angeles-Long Beach, CA",348
14000US06013303201,115,Brentwood,5451 Lone Tree Way,94513,Brentwood,CA,37.960884,-121.750074,1,rooftop,5451,Lone Tree Way,Brentwood,CA,Contra Costa County,94513,US,Contra Costa County,2015,6,06013,608142,303201,2006,2,"San Francisco-Oakland-Hayward, CA",41860,metropolitan,"San Jose-San Francisco-Oakland, CA",488
14000US06037310202,116,Burbank,214 East Alameda,91502,Burbank,CA,34.184225,-118.297721,1,rooftop,214,E Alameda Ave,Burbank,CA,Los Angeles County,91502,US,City of Burbank,2015,6,06037,608954,310202,1007,1,"Los Angeles-Long Beach-Anaheim, CA",31080,metropolitan,"Los Angeles-Long Beach, CA",348
14000US06111005502,117,Camarillo,363 Carmen Drive,93010,Camarillo,CA,34.219725,-119.052902,1,rooftop,363,Carmen Dr,Camarillo,CA,Ventura County,93010,US,Ventura,2015,6,06111,610046,005502,3003,3,"Oxnard-Thousand Oaks-Ventura, CA",37100,metropolitan,"Los Angeles-Long Beach, CA",348
14000US06085502604,118,Campbell,1875 Bascom Avenue,95008,Campbell,CA,37.288446,-121.933398,1,rooftop,1875,S Bascom Ave,Campbell,CA,Santa Clara County,95008,US,Santa Clara County,2015,6,06085,610345,502604,1015,1,"San Jose-Sunnyvale-Santa Clara, CA",41940,metropolitan,"San Jose-San Francisco-Oakland, CA",488
14000US06087121700,119,Capitola,3555 Clares Street #D,95010,Capitola,CA,36.978614,-121.969384,1,rooftop,3555,Clares St,Capitola,CA,Santa Cruz County,95010,US,City of Santa Cruz,2015,6,06087,611040,121700,2013,2,"Santa Cruz-Watsonville, CA",42100,metropolitan,"San Jose-San Francisco-Oakland, CA",488
14000US06073020013,120,Carlsbad,2629 Gateway Road,92009,Carlsbad,CA,33.126705,-117.254558,1,rooftop,2629,Gateway Rd,Carlsbad,CA,San Diego County,92009,US,San Diego Geographic Information Source - JPA,2015,6,06073,611194,020013,1006,1,"San Diego-Carlsbad, CA",41740,metropolitan,0,0
14000US06001431100,121,Castro Valley,22224 Redwood Road,94546,Castro Valley,CA,37.684975,-122.073251,1,rooftop,22224,Redwood Rd,Castro Valley,CA,Alameda County,94546,US,Alameda County,2015,6,06001,611964,431100,1015,1,"San Francisco-Oakland-Hayward, CA",41860,metropolitan,"San Jose-San Francisco-Oakland, CA",488
14000US06065045000,122,Cathedral City,67-720 East Palm Cyn.,92234,Cathedral City,CA,33.78432,-116.474952,0.1,street_center,0,State Rte 111,Cathedral City,CA,Riverside County,92234,US,TIGER/Line® dataset from the US Census Bureau,2015,6,06065,612048,045000,3011,3,"Riverside-San Bernardino-Ontario, CA",40140,metropolitan,"Los Angeles-Long Beach, CA",348
14000US06037554512,123,Cerritos,12861 Towne Center Drive,90703,Cerritos,CA,33.869176,-118.057969,1,rooftop,12861,Towne Center Dr,Cerritos,CA,Los Angeles County,90703,US,Los Angeles County,2015,6,06037,612552,554512,2014,2,"Los Angeles-Long Beach-Anaheim, CA",31080,metropolitan,"Los Angeles-Long Beach, CA",348
14000US06037113102,124,Chatsworth,10330 Mason Ave.,91311,Chatsworth,CA,34.258124,-118.579611,1,rooftop,10330,Mason Ave,Chatsworth,CA,Los Angeles County,91311,US,Los Angeles County,2015,6,06037,612748,113102,2014,2,"Los Angeles-Long Beach-Anaheim, CA",31080,metropolitan,"Los Angeles-Long Beach, CA",348
14000US06007000202,125,Chico,"801 East Ave., Suite #110",95926,Chico,CA,39.758271,-121.846811,1,rooftop,801,East Ave,Chico,CA,Butte County,95926,US,Butte County,2015,6,06007,613014,000202,1006,1,"Chico, CA",17020,metropolitan,0,0
14000US06071000105,126,Chino Hills,13911 Peyton Dr.,91709,Chino Hills,CA,34.000533,-117.73204,1,rooftop,13911,Peyton Dr,Chino Hills,CA,San Bernardino County,91709,US,San Bernardino County,2015,6,06071,613214,000105,1019,1,"Riverside-San Bernardino-Ontario, CA",40140,metropolitan,"Los Angeles-Long Beach, CA",348
14000US06073013419,127,Chula Vista,"878 Eastlake Parkway, Suite 810",91914,Chula Vista,CA,32.651639,-116.970587,1,rooftop,878,Eastlake Pkwy,Chula Vista,CA,San Diego County,91914,US,San Diego Geographic Information Source - JPA,2015,6,06073,613392,013419,2003,2,"San Diego-Carlsbad, CA",41740,metropolitan,0,0
14000US06037401800,128,Claremont,475 W. Foothill Blvd.,91711,Claremont,CA,34.107131,-117.721637,1,range_interpolation,475,W Foothill Blvd,Claremont,CA,Los Angeles County,91711,US,TIGER/Line® dataset from the US Census Bureau,2015,6,06037,613756,401800,3030,3,"Los Angeles-Long Beach-Anaheim, CA",31080,metropolitan,"Los Angeles-Long Beach, CA",348
14000US06019005514,129,Clovis,"1077 N. Willow, Suite 101",93611,Clovis,CA,36.849405,-119.728034,1,rooftop,1077,N Willow Ave,Clovis,CA,Fresno County,93611,US,Fresno County,2015,6,06019,614218,005514,1009,1,"Fresno, CA",23420,metropolitan,"Fresno-Madera, CA",260
14000US06013338201,130,Concord (Oak Grove & Treat),785 Oak Grove Road,94518,Concord,CA,37.937739,-122.025309,1,rooftop,785,Oak Grove Rd,Concord,CA,Contra Costa County,94518,US,Contra Costa County,2015,6,06013,616000,338201,2000,2,"San Francisco-Oakland-Hayward, CA",41860,metropolitan,"San Jose-San Francisco-Oakland, CA",488
14000US06013327000,131,Concord (Airport),1150 Concord Ave.,94520,Concord,CA,37.97887,-122.057022,1,rooftop,1150,Concord Ave,Concord,CA,Contra Costa County,94520,US,Contra Costa County,2015,6,06013,616000,327000,5032,5,"San Francisco-Oakland-Hayward, CA",41860,metropolitan,"San Jose-San Francisco-Oakland, CA",488
14000US06065041911,132,Corona,"2790 Cabot Drive, Ste. 165",92883,Corona,CA,33.752748,-117.474266,0.33,place,0,0,Corona,CA,Riverside County,92883,US,TIGER/Line® dataset from the US Census Bureau,2015,6,06065,616350,041911,3045,3,"Riverside-San Bernardino-Ontario, CA",40140,metropolitan,"Los Angeles-Long Beach, CA",348
14000US06059063605,133,Costa Mesa,640 W. 17th Street,92627,Costa Mesa,CA,33.636671,-117.924938,1,rooftop,640,W 17th St,Costa Mesa,CA,Orange County,92627,US,Orange County,2015,6,06059,616532,063605,2006,2,"Los Angeles-Long Beach-Anaheim, CA",31080,metropolitan,"Los Angeles-Long Beach, CA",348
14000US06037702400,134,Culver City,9290 Culver Blvd.,90232,Culver City,CA,34.025265,-118.393005,1,rooftop,9290,Culver Blvd,Culver City,CA,Los Angeles County,90232,US,Los Angeles County,2015,6,06037,617568,702400,1013,1,"Los Angeles-Long Beach-Anaheim, CA",31080,metropolitan,"Los Angeles-Long Beach, CA",348
14000US06081600600,135,Daly City,417 Westlake Center,94015,Daly City,CA,37.699307,-122.468109,0.9,range_interpolation,417,Westlake Ave,Daly City,CA,San Mateo County,94014,US,TIGER/Line® dataset from the US Census Bureau,2015,6,06081,617918,600600,2014,2,"San Francisco-Oakland-Hayward, CA",41860,metropolitan,"San Jose-San Francisco-Oakland, CA",488
14000US06013345203,136,Danville,85 Railroad Ave.,94526,Danville,CA,37.823101,-122.003263,1,rooftop,85,Railroad Ave,Danville,CA,Contra Costa County,94526,US,Contra Costa County,2015,6,06013,617988,345203,3009,3,"San Francisco-Oakland-Hayward, CA",41860,metropolitan,"San Jose-San Francisco-Oakland, CA",488
14000US06113010703,137,Davis,885 Russell Blvd,95616,Davis,CA,38.546505,-121.761491,1,range_interpolation,885,Russell Blvd,Davis,CA,Yolo County,95616,US,TIGER/Line® dataset from the US Census Bureau,2015,6,06113,618100,010703,4000,4,"Sacramento--Roseville--Arden-Arcade, CA",40900,metropolitan,"Sacramento-Roseville, CA",472
14000US06037181500,138,Eagle Rock,1566 Colorado Blvd.,90041,Eagle Rock,CA,34.139317,-118.200353,1,rooftop,1566,W Colorado Blvd,Los Angeles,CA,Los Angeles County,90041,US,Los Angeles County,2015,6,06037,644000,181500,1006,1,"Los Angeles-Long Beach-Anaheim, CA",31080,metropolitan,"Los Angeles-Long Beach, CA",348
14000US06013389100,139,El Cerrito,225 El Cerrito Plaza,94530,El Cerrito,CA,37.898857,-122.299568,1,rooftop,225,El Cerrito Plz,El Cerrito,CA,Contra Costa County,94530,US,Contra Costa County,2015,6,06013,621796,389100,2013,2,"San Francisco-Oakland-Hayward, CA",41860,metropolitan,"San Jose-San Francisco-Oakland, CA",488
14000US06067009632,140,Elk Grove,9670 Bruceville Road,95757,Elk Grove,CA,38.406656,-121.420233,1,rooftop,9670,Bruceville Rd,Elk Grove,CA,Sacramento County,95757,US,City of Elk Grove,2015,6,06067,0,009632,3000,3,"Sacramento--Roseville--Arden-Arcade, CA",40900,metropolitan,"Sacramento-Roseville, CA",472
14000US06001425102,141,Emeryville,5700 Christie Avenue,94608,Emeryville,CA,37.83707,-122.294361,1,rooftop,5700,Christie Ave,Emeryville,CA,Alameda County,94608,US,Alameda County,2015,6,06001,622594,425102,3006,3,"San Francisco-Oakland-Hayward, CA",41860,metropolitan,"San Jose-San Francisco-Oakland, CA",488
14000US06073017108,142,Encinitas,"115 N. El Camino Real, Suite A",92024,Encinitas,CA,33.046596,-117.259415,1,range_interpolation,115,N El Camino Real,Encinitas,CA,San Diego County,92024,US,TIGER/Line® dataset from the US Census Bureau,2015,6,06073,622678,017108,4002,4,"San Diego-Carlsbad, CA",41740,metropolitan,0,0
14000US06037139001,143,Encino,17640 Burbank Blvd.,91316,Encino,CA,34.172068,-118.517659,1,rooftop,17640,Burbank Blvd,Encino,CA,Los Angeles County,91316,US,Los Angeles County,2015,6,06037,622692,139001,2008,2,"Los Angeles-Long Beach-Anaheim, CA",31080,metropolitan,"Los Angeles-Long Beach, CA",348
14000US06073020403,144,Escondido,"1885 So. Centre City Pkwy., Unit “A”",92025,Escondido,CA,33.102005,-117.08042,0.33,place,0,0,Escondido,CA,San Diego County,92025,US,TIGER/Line® dataset from the US Census Bureau,2015,6,06073,622804,020403,1020,1,"San Diego-Carlsbad, CA",41740,metropolitan,0,0
14000US06067008008,145,Fair Oaks,5309 Sunrise Blvd.,95628,Fair Oaks,CA,38.662471,-121.272041,0.8,range_interpolation,5309,Sunrise Blvd,Fair Oaks,CA,Sacramento County,95628,US,TIGER/Line® dataset from the US Census Bureau,2015,6,06067,623294,008008,3005,3,"Sacramento--Roseville--Arden-Arcade, CA",40900,metropolitan,"Sacramento-Roseville, CA",472
14000US06067008402,146,Folsom,850 East Bidwell,95630,Folsom,CA,38.672137,-121.15593,1,rooftop,850,E Bidwell St,Folsom,CA,Sacramento County,95630,US,Secramento County,2015,6,06067,624638,008402,3024,3,"Sacramento--Roseville--Arden-Arcade, CA",40900,metropolitan,"Sacramento-Roseville, CA",472
14000US06001441923,147,Fremont,39324 Argonaut Way,94538,Fremont,CA,37.543547,-121.986113,1,rooftop,39324,Argonaut Way,Fremont,CA,Alameda County,94538,US,Alameda County,2015,6,06001,626000,441923,2045,2,"San Francisco-Oakland-Hayward, CA",41860,metropolitan,"San Jose-San Francisco-Oakland, CA",488
14000US06019004505,148,Fresno,5376 N. Blackstone,93710,Fresno,CA,36.814875,-119.7893,1,rooftop,5376,N Blackstone Ave,Fresno,CA,Fresno County,93710,US,Fresno County,2015,6,06019,627000,004505,2005,2,"Fresno, CA",23420,metropolitan,"Fresno-Madera, CA",260
14000US06037302003,149,Glendale,130 N. Glendale Ave.,91206,Glendale,CA,34.147062,-118.246468,1,rooftop,130,N Glendale Ave,Glendale,CA,Los Angeles County,91206,US,Los Angeles County,2015,6,06037,630000,302003,1013,1,"Los Angeles-Long Beach-Anaheim, CA",31080,metropolitan,"Los Angeles-Long Beach, CA",348
14000US06083002914,150,Goleta,5767 Calle Real,93117,Goleta,CA,34.44137,-119.823317,0.6,range_interpolation,5767,Cll Real,Goleta,CA,Santa Barbara County,93117,US,TIGER/Line® dataset from the US Census Bureau,2015,6,06083,630378,002914,2010,2,"Santa Maria-Santa Barbara, CA",42200,metropolitan,0,0
14000US06037111201,151,Granada Hills,11114 Balboa Blvd.,91344,Granada Hills,CA,34.272679,-118.501967,1,rooftop,11114,Balboa Blvd,Granada Hills,CA,Los Angeles County,91344,US,Los Angeles County,2015,6,06037,630602,111201,1003,1,"Los Angeles-Long Beach-Anaheim, CA",31080,metropolitan,"Los Angeles-Long Beach, CA",348
14000US06037191000,152,Hollywood,1600 N. Vine Street,90028,Los Angeles,CA,34.1,-118.32647,1,rooftop,1600,N Vine St,Los Angeles,CA,Los Angeles County,90028,US,City of Los Angeles,2015,6,06037,644000,191000,3003,3,"Los Angeles-Long Beach-Anaheim, CA",31080,metropolitan,"Los Angeles-Long Beach, CA",348
14000US06059099311,153,Huntington Bch.,18681-101 Main Street,92648,Huntington Bch.,CA,33.657645,-118.00196,1,rooftop,101,Main St,Huntington Beach,CA,Orange County,92648,US,Orange County,2015,6,06059,636000,099311,1021,1,"Los Angeles-Long Beach-Anaheim, CA",31080,metropolitan,"Los Angeles-Long Beach, CA",348
14000US06059099240,154,Huntington Bch.,21431 Brookhurst St.,92646,Huntington Bch.,CA,33.651874,-117.953674,1,range_interpolation,21431,Brookhurst St,Huntington Beach,CA,Orange County,92646,US,TIGER/Line® dataset from the US Census Bureau,2015,6,06059,636000,099240,2026,2,"Los Angeles-Long Beach-Anaheim, CA",31080,metropolitan,"Los Angeles-Long Beach, CA",348
14000US06059052527,155,Irvine (Walnut Village Center),14443 Culver Drive,92604,Irvine,CA,33.706142,-117.788436,0.9,rooftop,14443,Culver Dr,Irvine,CA,Orange County,92606,US,City of Irvine,2015,6,06059,636770,052527,1034,1,"Los Angeles-Long Beach-Anaheim, CA",31080,metropolitan,"Los Angeles-Long Beach, CA",348
14000US06059062627,156,Irvine (University Center),4225 Campus Dr.,92612,Irvine,CA,33.647927,-117.83511,1,range_interpolation,4225,Campus Dr,Irvine,CA,Orange County,92612,US,TIGER/Line® dataset from the US Census Bureau,2015,6,06059,636770,062627,2001,2,"Los Angeles-Long Beach-Anaheim, CA",31080,metropolitan,"Los Angeles-Long Beach, CA",348
14000US06059052517,157,Irvine (Irvine & Sand Cyn),6222 Irvine Blvd.,92620,Irvine,CA,33.672218,-117.768064,0.8,range_interpolation,6222,Irvine Blvd,Irvine,CA,Orange County,92620,US,TIGER/Line® dataset from the US Census Bureau,2015,6,06059,636770,052517,1016,1,"Los Angeles-Long Beach-Anaheim, CA",31080,metropolitan,"Los Angeles-Long Beach, CA",348
14000US06037460502,158,La Cañada,475 Foothill Blvd.,91011,La Canada,CA,34.199791,-118.188611,1,rooftop,475,Foothill Blvd,La Canada Flintridge,CA,Los Angeles County,91011,US,Los Angeles County,2015,6,06037,639003,460502,6013,6,"Los Angeles-Long Beach-Anaheim, CA",31080,metropolitan,"Los Angeles-Long Beach, CA",348
14000US06065045121,159,La Quinta,46-400 Washington Street,92253,La Quinta,CA,33.692926,-116.295119,0.7,street_center,0,Washington St,La Quinta,CA,Riverside County,92253,US,TIGER/Line® dataset from the US Census Bureau,2015,6,06065,640354,045121,3014,3,"Riverside-San Bernardino-Ontario, CA",40140,metropolitan,"Los Angeles-Long Beach, CA",348
14000US06013350000,160,Lafayette,3649 Mt. Diablo Blvd.,94549,Lafayette,CA,37.890245,-122.126941,1,rooftop,3649,Mt Diablo Blvd,Lafayette,CA,Contra Costa County,94549,US,Contra Costa County,2015,6,06013,639122,350000,1004,1,"San Francisco-Oakland-Hayward, CA",41860,metropolitan,"San Jose-San Francisco-Oakland, CA",488
14000US06059062647,161,Laguna Hills,24321 Avenue De La Carlota,92653,Laguna Hills,CA,33.609958,-117.702658,1,range_interpolation,24321,Ave De La Carlota,Laguna Hills,CA,Orange County,92653,US,TIGER/Line® dataset from the US Census Bureau,2015,6,06059,639220,062647,1005,1,"Los Angeles-Long Beach-Anaheim, CA",31080,metropolitan,"Los Angeles-Long Beach, CA",348
14000US06059042332,162,Laguna Niguel,32351 Street of the Golden Lantern,92677,Laguna Niguel,CA,33.49302,-117.696612,1,rooftop,32351,Golden Lantern,Laguna Niguel,CA,Orange County,92677,US,City of Laguna Niguel,2015,6,06059,639248,042332,2003,2,"Los Angeles-Long Beach-Anaheim, CA",31080,metropolitan,"Los Angeles-Long Beach, CA",348
14000US06059052420,163,La Jolla,8657 Villa LaJolla Drive #210,92037,La Jolla,CA,33.722529,-117.748126,0.6,street_center,0,Viola,Irvine,CA,Orange County,92620,US,TIGER/Line® dataset from the US Census Bureau,2015,6,06059,636770,052420,4004,4,"Los Angeles-Long Beach-Anaheim, CA",31080,metropolitan,"Los Angeles-Long Beach, CA",348
14000US06073015000,164,La Mesa,5495 Grossmont Center Dr.,91942,La Mesa,CA,32.779306,-117.00561,1,rooftop,5495,Grossmont Center Dr,La Mesa,CA,San Diego County,91942,US,San Diego Geographic Information Source - JPA,2015,6,06073,640004,015000,2031,2,"San Diego-Carlsbad, CA",41740,metropolitan,0,0
14000US06041121200,165,Larkspur,2052 Redwood Hwy,94921,Larkspur,CA,37.937904,-122.514894,0.8,rooftop,2052,Redwood Hwy,Greenbrae,CA,Marin County,94904,US,Marin County,2015,6,06041,630952,121200,2074,2,"San Francisco-Oakland-Hayward, CA",41860,metropolitan,"San Jose-San Francisco-Oakland, CA",488
14000US06001451602,166,Livermore,1122-A East Stanley Blvd.,94550,Livermore,CA,37.680185,-121.781522,0.9,rooftop,1122,E Stanley Bl,Livermore,CA,Alameda County,94550,US,Alameda County,2015,6,06001,641992,451602,1016,1,"San Francisco-Oakland-Hayward, CA",41860,metropolitan,"San Jose-San Francisco-Oakland, CA",488
14000US06037980007,167,Long Beach (PCH),6451 E. Pacific Coast Hwy.,90803,Long Beach,CA,33.756837,-118.108455,1,rooftop,6451,E Highway 1,Long Beach,CA,Los Angeles County,90803,US,Los Angeles County,2015,6,06037,643000,980007,1015,1,"Los Angeles-Long Beach-Anaheim, CA",31080,metropolitan,"Los Angeles-Long Beach, CA",348
14000US06037574300,168,Long Beach (Bellflower Blvd.),2222 Bellflower Blvd.,90815,Long Beach,CA,33.796576,-118.122905,1,rooftop,2222,Bellflower Blvd,Long Beach,CA,Los Angeles County,90815,US,Los Angeles County,2015,6,06037,643000,574300,3006,3,"Los Angeles-Long Beach-Anaheim, CA",31080,metropolitan,"Los Angeles-Long Beach, CA",348
14000US06085507805,169,Los Altos,2310 Homestead Rd.,94024,Los Altos,CA,37.336247,-122.066737,1,rooftop,2310,Homestead Rd,Los Altos,CA,Santa Clara County,94024,US,Santa Clara County,2015,6,06085,643280,507805,2020,2,"San Jose-Sunnyvale-Santa Clara, CA",41940,metropolitan,"San Jose-San Francisco-Oakland, CA",488
14000US06037214000,170,Los Angeles,263 S. La Brea,90036,Los Angeles,CA,34.07041,-118.350411,0.33,place,0,0,Los Angeles,CA,Los Angeles County,90036,US,TIGER/Line® dataset from the US Census Bureau,2015,6,06037,644000,214000,2009,2,"Los Angeles-Long Beach-Anaheim, CA",31080,metropolitan,"Los Angeles-Long Beach, CA",348
14000US06037214600,171,Los Angeles (3rd & Fairfax),W 3rd St & S Fairfax Ave (NW corner),90048,Los Angeles,CA,34.071515,-118.361411,0.9,intersection,0,S Fairfax Ave,Los Angeles,CA,Los Angeles County,90036,US,TIGER/Line® dataset from the US Census Bureau,2015,6,06037,644000,214600,2000,2,"Los Angeles-Long Beach-Anaheim, CA",31080,metropolitan,"Los Angeles-Long Beach, CA",348
14000US06037214902,172,Los Angeles (Burton Way),8500 Burton Way,90048,Los Angeles,CA,34.071018,-118.376669,1,rooftop,8500,Burton Way,Los Angeles,CA,Los Angeles County,90048,US,Los Angeles County,2015,6,06037,644000,214902,2013,2,"Los Angeles-Long Beach-Anaheim, CA",31080,metropolitan,"Los Angeles-Long Beach, CA",348
14000US06037189800,173,Los Angeles (Sunset Strip),8000 Sunset Blvd.,90046,Los Angeles,CA,34.09783,-118.364656,1,rooftop,8000,W Sunset Blvd,Los Angeles,CA,Los Angeles County,90046,US,Los Angeles County,2015,6,06037,644000,189800,3007,3,"Los Angeles-Long Beach-Anaheim, CA",31080,metropolitan,"Los Angeles-Long Beach, CA",348
14000US06085506801,174,Los Gatos,15466 Los Gatos Blvd.,95032,Los Gatos,CA,37.244242,-121.957804,1,rooftop,15466,Los Gatos Blvd,Los Gatos,CA,Santa Clara County,95032,US,Santa Clara County,2015,6,06085,644112,506801,2021,2,"San Jose-Sunnyvale-Santa Clara, CA",41940,metropolitan,"San Jose-San Francisco-Oakland, CA",488
14000US06037620400,175,Manhattan Beach,1821 Manhattan Beach. Blvd.,90266,Manhattan Bch.,CA,33.887538,-118.379664,1,rooftop,1821,Manhattan Beach Blvd,Manhattan Beach,CA,Los Angeles County,90266,US,Los Angeles County,2015,6,06037,645400,620400,2009,2,"Los Angeles-Long Beach-Anaheim, CA",31080,metropolitan,"Los Angeles-Long Beach, CA",348
14000US06081612600,177,Menlo Park,720 Menlo Avenue,94025,Menlo Park,CA,37.451386,-122.183385,1,rooftop,720,Menlo Ave,Menlo Park,CA,San Mateo County,94025,US,San Mateo County,2015,6,06081,646870,612600,3010,3,"San Francisco-Oakland-Hayward, CA",41860,metropolitan,"San Jose-San Francisco-Oakland, CA",488
14000US06081604800,178,Millbrae,765 Broadway,94030,Millbrae,CA,37.603484,-122.395962,1,rooftop,765,Broadway,Millbrae,CA,San Mateo County,94030,US,San Mateo County,2015,6,06081,647486,604800,1000,1,"San Francisco-Oakland-Hayward, CA",41860,metropolitan,"San Jose-San Francisco-Oakland, CA",488
14000US06073013414,179,Mission Valley,1072 Camino Del Rio North,92105,San Diego,CA,32.635977,-117.015123,0.5,rooftop,1072,Camino Del Sol,Chula Vista,CA,San Diego County,91910,US,San Diego Geographic Information Source - JPA,2015,6,06073,613392,013414,2004,2,"San Diego-Carlsbad, CA",41740,metropolitan,0,0
14000US06059032038,180,Mission Viejo,25410 Marguerite Parkway,92692,Mission Viejo,CA,33.591739,-117.659646,1,range_interpolation,25410,Marguerite Pkwy,Mission Viejo,CA,Orange County,92692,US,TIGER/Line® dataset from the US Census Bureau,2015,6,06059,648256,032038,3003,3,"Los Angeles-Long Beach-Anaheim, CA",31080,metropolitan,"Los Angeles-Long Beach, CA",348
14000US06099000807,181,Modesto,3250 Dale Road,95356,Modesto,CA,37.686987,-121.048783,1,rooftop,3250,Dale Rd,Modesto,CA,Stanislaus County,95356,US,Stanislaus County,2015,6,06099,648354,000807,1007,1,"Modesto, CA",33700,metropolitan,"Modesto-Merced, CA",382
14000US06037430901,182,Monrovia,604 W. Huntington Dr.,91016,Monrovia,CA,34.140151,-118.01186,1,range_interpolation,604,W Huntington Dr,Monrovia,CA,Los Angeles County,91016,US,TIGER/Line® dataset from the US Census Bureau,2015,6,06037,648648,430901,2010,2,"Los Angeles-Long Beach-Anaheim, CA",31080,metropolitan,"Los Angeles-Long Beach, CA",348
14000US06053012700,183,Monterey,"570 Munras Ave., Ste. 20",93940,Monterey,CA,36.596578,-121.894365,1,rooftop,570,Munras Ave,Monterey,CA,Monterey County,93940,US,Monterey County,2015,6,06053,648872,012700,2060,2,"Salinas, CA",41500,metropolitan,0,0
14000US06037300600,184,Montrose,2462 Honolulu Avenue,91020,Montrose,CA,34.20651,-118.23123,1,range_interpolation,2462,Honolulu Ave,Montrose,CA,Los Angeles County,91020,US,TIGER/Line® dataset from the US Census Bureau,2015,6,06037,649040,300600,1012,1,"Los Angeles-Long Beach-Anaheim, CA",31080,metropolitan,"Los Angeles-Long Beach, CA",348
14000US06085512312,185,Morgan Hill,17035 Laurel Road,95037,Morgan Hill,CA,37.131531,-121.6384,1,rooftop,17035,Laurel Rd,Morgan Hill,CA,Santa Clara County,95037,US,Santa Clara County,2015,6,06085,649278,512312,1002,1,"San Jose-Sunnyvale-Santa Clara, CA",41940,metropolitan,"San Jose-San Francisco-Oakland, CA",488
14000US06085509404,186,Mountain View,590 Showers Dr.,94040,Mountain View,CA,37.402103,-122.110738,1,rooftop,590,Showers Dr,Mountain View,CA,Santa Clara County,94040,US,City of Mountain View,2015,6,06085,649670,509404,4003,4,"San Jose-Sunnyvale-Santa Clara, CA",41940,metropolitan,"San Jose-San Francisco-Oakland, CA",488
14000US06055200601,187,Napa,3654 Bel Aire Plaza,94558,Napa,CA,38.322668,-122.305849,1,rooftop,3654,Bel Aire Plz,Napa,CA,Napa County,94558,US,Napa County,2015,6,06055,650258,200601,3018,3,"Napa, CA",34900,metropolitan,"San Jose-San Francisco-Oakland, CA",488
14000US06111005802,188,Newbury Park,125 N. Reino Road,0,Newbury Park,CA,34.182225,-118.95346,1,range_interpolation,125,N Reino Rd,Newbury Park,CA,Ventura County,91320,US,TIGER/Line® dataset from the US Census Bureau,2015,6,06111,650986,005802,3004,3,"Oxnard-Thousand Oaks-Ventura, CA",37100,metropolitan,"Los Angeles-Long Beach, CA",348
14000US06059062643,189,Newport Beach,8086 East Coast Highway,92657,Newport Beach,CA,33.597128,-117.835987,0.22,place,0,0,Newport Coast,CA,Orange County,92657,US,TIGER/Line® dataset from the US Census Bureau,2015,6,06059,651186,062643,3000,3,"Los Angeles-Long Beach-Anaheim, CA",31080,metropolitan,"Los Angeles-Long Beach, CA",348
14000US06041102203,190,Novato,7514 Redwood Blvd.,94945,Novato,CA,38.111544,-122.567805,1,rooftop,7514,Redwood Blvd,Novato,CA,Marin County,94945,US,Marin County,2015,6,06041,652582,102203,1007,1,"San Francisco-Oakland-Hayward, CA",41860,metropolitan,"San Jose-San Francisco-Oakland, CA",488
14000US06001405000,191,Oakland (Lakeshore),3250 Lakeshore Ave.,94610,Oakland,CA,37.809904,-122.244489,1,rooftop,3250,Lakeshore Ave,Oakland,CA,Alameda County,94610,US,Alameda County,2015,6,06001,653000,405000,3011,3,"San Francisco-Oakland-Hayward, CA",41860,metropolitan,"San Jose-San Francisco-Oakland, CA",488
14000US06001400200,192,Oakland (Rockridge),5727 College Ave.,94618,Oakland,CA,37.845537,-122.25253,1,rooftop,5727,College Ave,Oakland,CA,Alameda County,94618,US,Alameda County,2015,6,06001,653000,400200,2008,2,"San Francisco-Oakland-Hayward, CA",41860,metropolitan,"San Jose-San Francisco-Oakland, CA",488
14000US06073018504,193,Oceanside,2570 Vista Way,92054,Oceanside,CA,33.183083,-117.332738,0.8,range_interpolation,2570,Vista Way,Oceanside,CA,San Diego County,92054,US,TIGER/Line® dataset from the US Census Bureau,2015,6,06073,653322,018504,3016,3,"San Diego-Carlsbad, CA",41740,metropolitan,0,0
14000US06059076208,194,Orange,2114 N. Tustin St.,92865,Orange,CA,33.823207,-117.836453,1,rooftop,2114,N Tustin St,Orange,CA,Orange County,92865,US,City of Orange,2015,6,06059,653980,076208,3000,3,"Los Angeles-Long Beach-Anaheim, CA",31080,metropolitan,"Los Angeles-Long Beach, CA",348
14000US06053012000,195,Pacific Grove,1170 Forest Avenue,93950,Pacific Grove,CA,36.605548,-121.921812,1,rooftop,1170,Forest Ave,Pacific Grove,CA,Monterey County,93950,US,Monterey County,2015,6,06053,654848,012000,2003,2,"Salinas, CA",41500,metropolitan,0,0
14000US06065045116,196,Palm Desert,"44-250 Town Center Way, Suite C6",92260,Palm Desert,CA,33.723059,-116.39862,0.7,street_center,0,Town Center Way,Palm Desert,CA,Riverside County,92260,US,TIGER/Line® dataset from the US Census Bureau,2015,6,06065,655184,045116,1001,1,"Riverside-San Bernardino-Ontario, CA",40140,metropolitan,"Los Angeles-Long Beach, CA",348
14000US06037910208,197,Palmdale,39507 10th Street West,93551,Palmdale,CA,34.600248,-118.147782,1,range_interpolation,39507,10th St W,Palmdale,CA,Los Angeles County,93551,US,TIGER/Line® dataset from the US Census Bureau,2015,6,06037,655156,910208,1009,1,"Los Angeles-Long Beach-Anaheim, CA",31080,metropolitan,"Los Angeles-Long Beach, CA",348
14000US06085511609,198,Palo Alto,855 El Camino Real,94301,Palo Alto,CA,37.438359,-122.159175,1,rooftop,855,El Camino Real,Palo Alto,CA,Santa Clara County,94301,US,City of Palo Alto,2015,6,06085,655282,511609,1055,1,"San Jose-Sunnyvale-Santa Clara, CA",41940,metropolitan,"San Jose-San Francisco-Oakland, CA",488
14000US06037463601,199,Pasadena (S. Lake Ave.),345 South Lake Ave.,91101,Pasadena,CA,34.139916,-118.13314,1,rooftop,345,S Lake Ave,Pasadena,CA,Los Angeles County,91101,US,Los Angeles County,2015,6,06037,656000,463601,3012,3,"Los Angeles-Long Beach-Anaheim, CA",31080,metropolitan,"Los Angeles-Long Beach, CA",348
14000US06037464000,200,Pasadena (S. Arroyo Pkwy.),610 S. Arroyo Parkway,91105,Pasadena,CA,34.135176,-118.146918,1,rooftop,610,S Arroyo Pkwy,Pasadena,CA,Los Angeles County,91105,US,Los Angeles County,2015,6,06037,656000,464000,5002,5,"Los Angeles-Long Beach-Anaheim, CA",31080,metropolitan,"Los Angeles-Long Beach, CA",348
14000US06097150603,201,Petaluma,169 North McDowell Blvd.,94954,Petaluma,CA,38.248842,-122.629385,1,rooftop,169,N McDowell Blvd,Petaluma,CA,Sonoma County,94954,US,Sonoma County,2015,6,06097,656784,150603,1015,1,"Santa Rosa, CA",42220,metropolitan,"San Jose-San Francisco-Oakland, CA",488
14000US06013360101,202,Pinole,2742 Pinole Valley Rd.,94564,Pinole,CA,37.99521,-122.285832,1,rooftop,2742,Pinole Valley Rd,Pinole,CA,Contra Costa County,94564,US,Contra Costa County,2015,6,06013,657288,360101,3007,3,"San Francisco-Oakland-Hayward, CA",41860,metropolitan,"San Jose-San Francisco-Oakland, CA",488
14000US06001450744,203,Pleasanton,4040 Pimlico #150,94588,Pleasanton,CA,37.699665,-121.870259,1,rooftop,4040,Pimlico Dr,Pleasanton,CA,Alameda County,94588,US,Alameda County,2015,6,06001,657792,450744,1014,1,"San Francisco-Oakland-Hayward, CA",41860,metropolitan,"San Jose-San Francisco-Oakland, CA",488
14000US06071002019,204,Rancho Cucamonga,6401 Haven Ave.,91737,Rancho Cucamonga,CA,34.137791,-117.574099,1,rooftop,6401,Haven Ave,Alta Loma,CA,San Bernardino County,91737,US,City of Rancho Cucamonga,2015,6,06071,601332,002019,2004,2,"Riverside-San Bernardino-Ontario, CA",40140,metropolitan,"Los Angeles-Long Beach, CA",348
14000US06037670701,205,Rancho Palos Verdes,28901 S. Western Ave. #243,90275,Rancho Palos Verdes,CA,33.756457,-118.310414,1,range_interpolation,28901,S Western Ave,Rancho Palos Verdes,CA,Los Angeles County,90275,US,TIGER/Line® dataset from the US Census Bureau,2015,6,06037,659514,670701,3001,3,"Los Angeles-Long Beach-Anaheim, CA",31080,metropolitan,"Los Angeles-Long Beach, CA",348
14000US06037670602,206,Rancho Palos Verdes,31176 Hawthorne Blvd.,90275,Rancho Palos Verdes,CA,33.749325,-118.407096,1,range_interpolation,31176,Hawthorne Blvd,Rancho Palos Verdes,CA,Los Angeles County,90275,US,TIGER/Line® dataset from the US Census Bureau,2015,6,06037,659514,670602,2018,2,"Los Angeles-Long Beach-Anaheim, CA",31080,metropolitan,"Los Angeles-Long Beach, CA",348
14000US06059032054,207,Rancho Santa Margarita,30652 Santa Margarita Pkwy. Suite F102,92688,Rcho Santa Margarita,CA,33.642394,-117.595404,0.9,rooftop,30652,Santa Margarita Pk Rancho,Rancho Santa Margarita,CA,Orange County,92688,US,Orange County,2015,6,06059,659587,032054,1013,1,"Los Angeles-Long Beach-Anaheim, CA",31080,metropolitan,"Los Angeles-Long Beach, CA",348
14000US06089010803,208,Redding,845 Browning St.,96003,Redding,CA,40.592328,-122.357198,1,rooftop,845,Browning St,Redding,CA,Shasta County,96003,US,Shasta County,2015,6,06089,659920,010803,3039,3,"Redding, CA",39820,metropolitan,"Redding-Red Bluff, CA",454
14000US06071008002,209,Redlands,552 Orange Street Plaza,92374,Redlands,CA,34.060625,-117.18117,0.9,rooftop,552,Orange St,Redlands,CA,San Bernardino County,92373,US,San Bernardino County,2015,6,06071,659962,008002,6055,6,"Riverside-San Bernardino-Ontario, CA",40140,metropolitan,"Los Angeles-Long Beach, CA",348
14000US06037621326,210,Redondo Beach,1761 S. Elena Avenue,90277,Redondo Bch.,CA,33.817444,-118.386068,1,range_interpolation,1761,S Elena Ave,Redondo Beach,CA,Los Angeles County,90277,US,TIGER/Line® dataset from the US Census Bureau,2015,6,06037,660018,621326,1007,1,"Los Angeles-Long Beach-Anaheim, CA",31080,metropolitan,"Los Angeles-Long Beach, CA",348
14000US06065031100,211,Riverside,6225 Riverside Plaza,92506,Riverside,CA,33.955583,-117.388254,0.6,rooftop,6225,Riverside Ave,Riverside,CA,Riverside County,92506,US,City of Riverside,2015,6,06065,662000,031100,5021,5,"Riverside-San Bernardino-Ontario, CA",40140,metropolitan,"Los Angeles-Long Beach, CA",348
14000US06061020806,212,Roseville,1117 Roseville Square,95678,Roseville,CA,38.746203,-121.274888,1,rooftop,1117,Roseville Sq,Roseville,CA,Placer County,95678,US,County of Placer,2015,6,06061,662938,020806,1019,1,"Sacramento--Roseville--Arden-Arcade, CA",40900,metropolitan,"Sacramento-Roseville, CA",472
14000US06067001600,213,Sacramento (Folsom Blvd.),5000 Folsom Blvd.,95819,Sacramento,CA,38.56047,-121.444738,1,rooftop,5000,Folsom Blvd,Sacramento,CA,Sacramento County,95819,US,Secramento County,2015,6,06067,664000,001600,5010,5,"Sacramento--Roseville--Arden-Arcade, CA",40900,metropolitan,"Sacramento-Roseville, CA",472
14000US06067006101,214,Sacramento (Fulton & Marconi),2625 Marconi Avenue,95821,Sacramento,CA,38.618137,-121.401184,1,range_interpolation,2625,Marconi Ave,Sacramento,CA,Sacramento County,95821,US,TIGER/Line® dataset from the US Census Bureau,2015,6,06067,664000,006101,3010,3,"Sacramento--Roseville--Arden-Arcade, CA",40900,metropolitan,"Sacramento-Roseville, CA",472
14000US06081609300,215,San Carlos,1482 El Camino Real,94070,San Carlos,CA,37.496655,-122.24823,1,rooftop,1482,State Highway 82,San Carlos,CA,San Mateo County,94070,US,San Mateo County,2015,6,06081,665070,609300,1003,1,"San Francisco-Oakland-Hayward, CA",41860,metropolitan,"San Jose-San Francisco-Oakland, CA",488
14000US06059042111,216,San Clemente,"638 Camino DeLosMares, Sp.#115-G",92673,San Clemente,CA,33.459745,-117.625076,0.33,place,0,0,San Clemente,CA,Orange County,92673,US,TIGER/Line® dataset from the US Census Bureau,2015,6,06059,665084,042111,1000,1,"Los Angeles-Long Beach-Anaheim, CA",31080,metropolitan,"Los Angeles-Long Beach, CA",348
14000US06073000600,217,San Diego (Hillcrest),1090 University Ste. G100-107,92103,San Diego,CA,32.74913,-117.154437,1,rooftop,1090,University Ave,San Diego,CA,San Diego County,92103,US,San Diego Geographic Information Source - JPA,2015,6,06073,666000,000600,3006,3,"San Diego-Carlsbad, CA",41740,metropolitan,0,0
14000US06073021400,218,San Diego (Point Loma),"2401 Truxtun Rd., Ste. 100",92106,San Diego,CA,32.736082,-117.217403,1,range_interpolation,2401,Truxtun Rd,San Diego,CA,San Diego County,92106,US,TIGER/Line® dataset from the US Census Bureau,2015,6,06073,666000,021400,1016,1,"San Diego-Carlsbad, CA",41740,metropolitan,0,0
14000US06073007910,219,San Diego (Pacific Beach),1211 Garnet Avenue,92109,San Diego,CA,32.798081,-117.247831,1,rooftop,1211,Garnet Ave,San Diego,CA,San Diego County,92109,US,San Diego Geographic Information Source - JPA,2015,6,06073,666000,007910,2000,2,"San Diego-Carlsbad, CA",41740,metropolitan,0,0
14000US06073017055,220,San Diego (Carmel Mtn. Ranch),11955 Carmel Mtn. Rd. #702,92128,San Diego,CA,32.981984,-117.075103,1,rooftop,11955,Carmel Mountain Rd,San Diego,CA,San Diego County,92128,US,San Diego Geographic Information Source - JPA,2015,6,06073,666000,017055,2001,2,"San Diego-Carlsbad, CA",41740,metropolitan,0,0
14000US06073017022,221,San Diego (Scripps Ranch),9850 Hibert Street,92131,San Diego,CA,32.914322,-117.115159,1,rooftop,9850,Hibert St,San Diego,CA,San Diego County,92131,US,San Diego Geographic Information Source - JPA,2015,6,06073,666000,017022,6003,6,"San Diego-Carlsbad, CA",41740,metropolitan,0,0
14000US06037401312,222,San Dimas,856 Arrow Hwy. “C” Target Center,91773,San Dimas,CA,34.106474,-117.823909,1,range_interpolation,856,W Arrow Hwy,San Dimas,CA,Los Angeles County,91773,US,TIGER/Line® dataset from the US Census Bureau,2015,6,06037,666070,401312,1003,1,"Los Angeles-Long Beach-Anaheim, CA",31080,metropolitan,"Los Angeles-Long Beach, CA",348
14000US06075015400,223,San Francisco (Masonic Ave.),3 Masonic Avenue,94118,San Francisco,CA,37.783356,-122.447755,1,rooftop,3,Masonic Ave,San Francisco,CA,San Francisco County,94118,US,San Francisco,2015,6,06075,667000,015400,3002,3,"San Francisco-Oakland-Hayward, CA",41860,metropolitan,"San Jose-San Francisco-Oakland, CA",488
14000US06075011100,224,San Francisco (Nob Hill),1095 Hyde St,94109,San Francisco,CA,37.790616,-122.417821,1,rooftop,1095,Hyde St,San Francisco,CA,San Francisco County,94109,US,San Francisco,2015,6,06075,667000,011100,2002,2,"San Francisco-Oakland-Hayward, CA",41860,metropolitan,"San Jose-San Francisco-Oakland, CA",488
14000US06075010100,225,San Francisco (North Beach),401 Bay Street,94133,San Francisco,CA,37.805431,-122.413884,1,rooftop,401,Bay St,San Francisco,CA,San Francisco County,94133,US,San Francisco,2015,6,06075,667000,010100,2006,2,"San Francisco-Oakland-Hayward, CA",41860,metropolitan,"San Jose-San Francisco-Oakland, CA",488
14000US06075033201,226,San Francisco (Stonestown),265 Winston Dr.,94132,San Francisco,CA,37.726511,-122.476179,1,rooftop,265,Winston Dr,San Francisco,CA,San Francisco County,94132,US,San Francisco,2015,6,06075,667000,033201,1006,1,"San Francisco-Oakland-Hayward, CA",41860,metropolitan,"San Jose-San Francisco-Oakland, CA",488
14000US06037480011,227,San Gabriel,7260 N. Rosemead Blvd.,91775,San Gabriel,CA,34.129478,-118.072885,0.8,rooftop,7260,Rosemead Blvd,San Gabriel,CA,Los Angeles County,91775,US,Los Angeles County,2015,6,06037,667042,480011,1001,1,"Los Angeles-Long Beach-Anaheim, CA",31080,metropolitan,"Los Angeles-Long Beach, CA",348
14000US06085500300,228,San Jose (Coleman Ave),635 Coleman Ave.,95110,San Jose,CA,37.341978,-121.910672,1,range_interpolation,635,Coleman Ave,San Jose,CA,Santa Clara County,95110,US,TIGER/Line® dataset from the US Census Bureau,2015,6,06085,668000,500300,1033,1,"San Jose-Sunnyvale-Santa Clara, CA",41940,metropolitan,"San Jose-San Francisco-Oakland, CA",488
14000US06085502910,229,San Jose (Old Almaden),5353 Almaden Expressway #J-38,95118,San Jose,CA,37.254045,-121.878211,1,rooftop,5353,Almaden Ex,San Jose,CA,Santa Clara County,95118,US,City of San Jose,2015,6,06085,668000,502910,3000,3,"San Jose-Sunnyvale-Santa Clara, CA",41940,metropolitan,"San Jose-San Francisco-Oakland, CA",488
14000US06085506202,230,San Jose (Westgate West),5269 Prospect,95129,San Jose,CA,37.292388,-121.995782,1,range_interpolation,5269,Prospect Rd,San Jose,CA,Santa Clara County,95129,US,TIGER/Line® dataset from the US Census Bureau,2015,6,06085,668000,506202,3001,3,"San Jose-Sunnyvale-Santa Clara, CA",41940,metropolitan,"San Jose-San Francisco-Oakland, CA",488
14000US06079011503,231,San Luis Obispo,3977 Higuera Street,93401,San Luis Obispo,CA,35.245065,-120.673444,1,rooftop,3977,S Higuera St,San Luis Obispo,CA,San Luis Obispo County,93401,US,San Luis Obispo County,2015,6,06079,668154,011503,2029,2,"San Luis Obispo-Paso Robles-Arroyo Grande, CA",42020,metropolitan,0,0
14000US06081605900,232,San Mateo (Grant Street),1820-22 S. Grant Street,94402,San Mateo,CA,37.571418,-122.337402,0.9,range_interpolation,22,S Grant St,San Mateo,CA,San Mateo County,94401,US,TIGER/Line® dataset from the US Census Bureau,2015,6,06081,668252,605900,1012,1,"San Francisco-Oakland-Hayward, CA",41860,metropolitan,"San Jose-San Francisco-Oakland, CA",488
14000US06081607200,233,San Mateo (Hillsdale),45 W Hillsdale Blvd,94403,San Mateo,CA,37.536082,-122.298614,1,range_interpolation,45,W Hillsdale Blvd,San Mateo,CA,San Mateo County,94403,US,TIGER/Line® dataset from the US Census Bureau,2015,6,06081,668252,607200,1003,1,"San Francisco-Oakland-Hayward, CA",41860,metropolitan,"San Jose-San Francisco-Oakland, CA",488
14000US06041110100,234,San Rafael,337 Third Street,94901,San Rafael,CA,37.969614,-122.516382,1,rooftop,337,3rd St,San Rafael,CA,Marin County,94901,US,Marin County,2015,6,06041,668364,110100,3027,3,"San Francisco-Oakland-Hayward, CA",41860,metropolitan,"San Jose-San Francisco-Oakland, CA",488
14000US06059074006,235,Santa Ana,3329 South Bristol Street,92704,Santa Ana,CA,33.703343,-117.885486,1,range_interpolation,3329,S Bristol St,Santa Ana,CA,Orange County,92704,US,TIGER/Line® dataset from the US Census Bureau,2015,6,06059,669000,074006,1002,1,"Los Angeles-Long Beach-Anaheim, CA",31080,metropolitan,"Los Angeles-Long Beach, CA",348
14000US06083000804,236,Santa Barbara (S. Milpas St.),29 S. Milpas Street,93103,Santa Barbara,CA,34.421458,-119.678494,1,range_interpolation,29,S Milpas St,Santa Barbara,CA,Santa Barbara County,93103,US,TIGER/Line® dataset from the US Census Bureau,2015,6,06083,669070,000804,4016,4,"Santa Maria-Santa Barbara, CA",42200,metropolitan,0,0
14000US06071005200,237,Santa Barbara (De La Vina),3025 De La Vina,93105,Santa Barbara,CA,34.146494,-117.291429,0.8,rooftop,3025,N D St,San Bernardino,CA,San Bernardino County,92405,US,San Bernardino County,2015,6,06071,665000,005200,4011,4,"Riverside-San Bernardino-Ontario, CA",40140,metropolitan,"Los Angeles-Long Beach, CA",348
14000US06087100700,238,Santa Cruz,700 Front Street,95060,Santa Cruz,CA,36.974557,-122.024315,1,rooftop,700,Front St,Santa Cruz,CA,Santa Cruz County,95060,US,City of Santa Cruz,2015,6,06087,669112,100700,2017,2,"Santa Cruz-Watsonville, CA",42100,metropolitan,"San Jose-San Francisco-Oakland, CA",488
14000US06083002103,239,Santa Maria,1303 S. Bradley Road,93454,Santa Maria,CA,34.937664,-120.420886,1,rooftop,1303,S Bradley Rd,Santa Maria,CA,Santa Barbara County,93454,US,Santa Barbara County,2015,6,06083,669196,002103,3012,3,"Santa Maria-Santa Barbara, CA",42200,metropolitan,0,0
14000US06037702300,240,Santa Monica,3212 Pico Blvd.,90405,Santa Monica,CA,34.02637,-118.455986,1,range_interpolation,3212,Pico Blvd,Santa Monica,CA,Los Angeles County,90405,US,TIGER/Line® dataset from the US Census Bureau,2015,6,06037,670000,702300,1004,1,"Los Angeles-Long Beach-Anaheim, CA",31080,metropolitan,"Los Angeles-Long Beach, CA",348
14000US06097152801,241,Santa Rosa (Cleveland Ave.),3225 Cleveland Avenue,95403,Santa Rosa,CA,38.473586,-122.732164,1,rooftop,3225,Cleveland Ave,Santa Rosa,CA,Sonoma County,95403,US,Sonoma County,2015,6,06097,670098,152801,1026,1,"Santa Rosa, CA",42220,metropolitan,"San Jose-San Francisco-Oakland, CA",488
14000US06097151402,242,Santa Rosa (Santa Rosa Ave.),2100 Santa Rosa Ave.,95407,Santa Rosa,CA,38.417485,-122.712113,1,rooftop,2100,Santa Rosa Ave,Santa Rosa,CA,Sonoma County,95407,US,Sonoma County,2015,6,06097,670098,151402,1030,1,"Santa Rosa, CA",42220,metropolitan,"San Jose-San Francisco-Oakland, CA",488
14000US06037128702,243,Sherman Oaks,14119 Riverside Drive,91423,Sherman Oaks,CA,34.157773,-118.440603,1,rooftop,14119,Riverside Dr,Sherman Oaks,CA,Los Angeles County,91423,US,Los Angeles County,2015,6,06037,671470,128702,3000,3,"Los Angeles-Long Beach-Anaheim, CA",31080,metropolitan,"Los Angeles-Long Beach, CA",348
14000US06111008101,244,Simi Valley,2975-A Cochran St.,93065,Simi Valley,CA,34.281006,-118.738655,0.9,rooftop,2975,Cochran St,Simi Valley,CA,Ventura County,93065,US,Ventura,2015,6,06111,672016,008101,1006,1,"Oxnard-Thousand Oaks-Ventura, CA",37100,metropolitan,"Los Angeles-Long Beach, CA",348
14000US06037480703,245,South Pasadena,613 Mission Street,91030,South Pasadena,CA,34.115388,-118.162917,1,rooftop,613,Mission St,South Pasadena,CA,Los Angeles County,91030,US,Los Angeles County,2015,6,06037,673220,480703,1000,1,"Los Angeles-Long Beach-Anaheim, CA",31080,metropolitan,"Los Angeles-Long Beach, CA",348
14000US06081601902,246,South San Francisco,301 McLellan Dr.,94080,So. San Francisco,CA,37.663548,-122.445998,0.7,street_center,0,McLellan Dr,South San Francisco,CA,San Mateo County,94080,US,TIGER/Line® dataset from the US Census Bureau,2015,6,06081,673262,601902,1002,1,"San Francisco-Oakland-Hayward, CA",41860,metropolitan,"San Jose-San Francisco-Oakland, CA",488
14000US06077003110,247,Stockton,6535 Pacific Avenue,95207,Stockton,CA,38.009578,-121.320097,1,range_interpolation,6535,Pacific Ave,Stockton,CA,San Joaquin County,95207,US,TIGER/Line® dataset from the US Census Bureau,2015,6,06077,675000,003110,1012,1,"Stockton-Lodi, CA",44700,metropolitan,"San Jose-San Francisco-Oakland, CA",488
14000US06037143800,248,Studio City,11976 Ventura Blvd.,91604,Studio City,CA,34.143412,-118.392915,1,rooftop,11976,Ventura Blvd,Studio City,CA,Los Angeles County,91604,US,Los Angeles County,2015,6,06037,675434,143800,3001,3,"Los Angeles-Long Beach-Anaheim, CA",31080,metropolitan,"Los Angeles-Long Beach, CA",348
14000US06085508404,249,Sunnyvale,316 West El Camino Real,94087,Sunnyvale,CA,37.368167,-122.036102,1,rooftop,316,W El Camino Real,Sunnyvale,CA,Santa Clara County,94087,US,Santa Clara County,2015,6,06085,677000,508404,1000,1,"San Jose-Sunnyvale-Santa Clara, CA",41940,metropolitan,"San Jose-San Francisco-Oakland, CA",488
14000US06065049600,250,Temecula,"40665 Winchester Rd., Bldg. B, Ste. 4-6",92591,Temecula,CA,33.528864,-117.156104,1,rooftop,40665,Winchester Rd,Temecula,CA,Riverside County,92591,US,City of Temecula,2015,6,06065,678120,049600,3012,3,"Riverside-San Bernardino-Ontario, CA",40140,metropolitan,"Los Angeles-Long Beach, CA",348
14000US06079012704,251,Templeton,1111 Rossi Road,93465,Templeton,CA,35.541963,-120.71516,1,rooftop,1111,Rossi Rd,Templeton,CA,San Luis Obispo County,93465,US,San Luis Obispo County,2015,6,06079,678162,012704,1004,1,"San Luis Obispo-Paso Robles-Arroyo Grande, CA",42020,metropolitan,0,0
14000US06111006302,252,Thousand Oaks,451 Avenida De Los Arboles,91360,Thousand Oaks,CA,34.218736,-118.869047,1,rooftop,451,Avenida De Los Arboles,Thousand Oaks,CA,Ventura County,91360,US,Ventura,2015,6,06111,678582,006302,2015,2,"Oxnard-Thousand Oaks-Ventura, CA",37100,metropolitan,"Los Angeles-Long Beach, CA",348
14000US06037143100,253,Toluca Lake,10130 Riverside Drive,91602,Toluca Lake,CA,34.151963,-118.351806,1,rooftop,10130,Riverside Dr,North Hollywood,CA,Los Angeles County,91602,US,Los Angeles County,2015,6,06037,651952,143100,1004,1,"Los Angeles-Long Beach-Anaheim, CA",31080,metropolitan,"Los Angeles-Long Beach, CA",348
14000US06037650401,254,Torrance (Hawthorne Blvd.),19720 Hawthorne Blvd.,90503,Torrance,CA,33.852212,-118.353108,1,rooftop,19720,Hawthorne Blvd,Torrance,CA,Los Angeles County,90503,US,Los Angeles County,2015,6,06037,680000,650401,1040,1,"Los Angeles-Long Beach-Anaheim, CA",31080,metropolitan,"Los Angeles-Long Beach, CA",348
14000US06037651101,255,Torrance (Rolling Hills Plaza),2545 Pacific Coast Highway,90505,Torrance,CA,33.790859,-118.330187,1,rooftop,2545,Pacific Coast Hwy,Torrance,CA,Los Angeles County,90505,US,Los Angeles County,2015,6,06037,680000,651101,2058,2,"Los Angeles-Long Beach-Anaheim, CA",31080,metropolitan,"Los Angeles-Long Beach, CA",348
14000US06037920112,256,Valencia,26517 Bouquet Canyon Rd,91350,Santa Clarita,CA,34.428603,-118.536282,1,range_interpolation,26517,Bouquet Canyon Rd,Santa Clarita,CA,Los Angeles County,91350,US,TIGER/Line® dataset from the US Census Bureau,2015,6,06037,669088,920112,1011,1,"Los Angeles-Long Beach-Anaheim, CA",31080,metropolitan,"Los Angeles-Long Beach, CA",348
14000US06111001502,257,Ventura,1795 S. Victoria Avenue,93003,Ventura,CA,34.257257,-119.211713,1,rooftop,1795,S Victoria Ave,Ventura,CA,Ventura County,93003,US,Ventura,2015,6,06111,682282,001502,2000,2,"Oxnard-Thousand Oaks-Ventura, CA",37100,metropolitan,"Los Angeles-Long Beach, CA",348
14000US06111002700,258,Ventura - Midtown,103 S. Mills Road Suite 104,93003,Ventura,CA,34.271496,-119.248909,1,rooftop,103,S Mills Rd,Ventura,CA,Ventura County,93003,US,Ventura,2015,6,06111,682282,002700,1010,1,"Oxnard-Thousand Oaks-Ventura, CA",37100,metropolitan,"Los Angeles-Long Beach, CA",348
14000US06013343001,259,Walnut Creek,1372 So. California Blvd.,94596,Walnut Creek,CA,37.889079,-122.03756,0.33,place,0,0,Walnut Creek,CA,Contra Costa County,94596,US,TIGER/Line® dataset from the US Census Bureau,2015,6,06013,683346,343001,1010,1,"San Francisco-Oakland-Hayward, CA",41860,metropolitan,"San Jose-San Francisco-Oakland, CA",488
14000US06037135201,260,West Hills,6751 Fallbrook Ave.,91307,West Hills,CA,34.192555,-118.624079,1,rooftop,6751,Fallbrook Ave,West Hills,CA,Los Angeles County,91307,US,Los Angeles County,2015,6,06037,684393,135201,1007,1,"Los Angeles-Long Beach-Anaheim, CA",31080,metropolitan,"Los Angeles-Long Beach, CA",348
14000US06037700502,261,West Hollywood,8611 Santa Monica Blvd.,90069,West Hollywood,CA,34.08912,-118.377805,1,range_interpolation,8611,Santa Monica Blvd,West Hollywood,CA,Los Angeles County,90069,US,TIGER/Line® dataset from the US Census Bureau,2015,6,06037,684410,700502,1011,1,"Los Angeles-Long Beach-Anaheim, CA",31080,metropolitan,"Los Angeles-Long Beach, CA",348
14000US06037271701,262,West Los Angeles (National Blvd.),10850 National Blvd.,90064,West Los Angeles,CA,34.03015,-118.42138,1,rooftop,10850,W National Blvd,Los Angeles,CA,Los Angeles County,90064,US,City of Los Angeles,2015,6,06037,644000,271701,1005,1,"Los Angeles-Long Beach-Anaheim, CA",31080,metropolitan,"Los Angeles-Long Beach, CA",348
14000US06037271702,263,West Los Angeles (S. Sepulveda Blvd.),3456 S. Sepulveda Blvd.,90034,West Los Angeles,CA,34.020199,-118.422736,1,rooftop,3456,S Sepulveda Blvd,Los Angeles,CA,Los Angeles County,90034,US,Los Angeles County,2015,6,06037,644000,271702,3005,3,"Los Angeles-Long Beach-Anaheim, CA",31080,metropolitan,"Los Angeles-Long Beach, CA",348
14000US06037267600,264,West Los Angeles (Olympic),11755 W. Olympic Blvd.,90064,West Los Angeles,CA,34.03383,-118.44921,1,rooftop,11755,W Olympic Blvd,Los Angeles,CA,Los Angeles County,90064,US,City of Los Angeles,2015,6,06037,644000,267600,2006,2,"Los Angeles-Long Beach-Anaheim, CA",31080,metropolitan,"Los Angeles-Long Beach, CA",348
14000US06037278001,265,Westchester,8645 S. Sepulveda,90045,Westchester,CA,33.958569,-118.396452,1,rooftop,8645,S Sepulveda Blvd,Los Angeles,CA,Los Angeles County,90045,US,Los Angeles County,2015,6,06037,644000,278001,2000,2,"Los Angeles-Long Beach-Anaheim, CA",31080,metropolitan,"Los Angeles-Long Beach, CA",348
14000US06111007202,266,Westlake Village,3835 E. Thousand Oaks Blvd.,91362,Westlake Village,CA,34.163371,-118.82459,1,rooftop,3835,E Thousand Oaks Blvd,Thousand Oaks,CA,Ventura County,91362,US,Ventura,2015,6,06111,678582,007202,2002,2,"Oxnard-Thousand Oaks-Ventura, CA",37100,metropolitan,"Los Angeles-Long Beach, CA",348
14000US06037500202,267,Whittier,15025 E. Whittier Blvd.,90603,Whittier,CA,33.949153,-118.005551,1,rooftop,15025,Whittier Blvd,Whittier,CA,Los Angeles County,90603,US,Los Angeles County,2015,6,06037,685292,500202,2013,2,"Los Angeles-Long Beach-Anaheim, CA",31080,metropolitan,"Los Angeles-Long Beach, CA",348
14000US06037137502,268,Woodland Hills,21055 Ventura Blvd,91364,Woodland Hills,CA,34.16709,-118.59249,1,rooftop,21055,Ventura Blvd,Woodland Hills,CA,Los Angeles County,91364,US,Los Angeles County,2015,6,06037,686356,137502,1002,1,"Los Angeles-Long Beach-Anaheim, CA",31080,metropolitan,"Los Angeles-Long Beach, CA",348
14000US06059021822,269,Yorba Linda,19655 Yorba Linda Blvd.,92886,Yorba Linda,CA,33.889444,-117.792261,1,rooftop,19655,Yorba Linda Bl,Yorba Linda,CA,Orange County,92886,US,Orange County,2015,6,06059,686832,021822,3008,3,"Los Angeles-Long Beach-Anaheim, CA",31080,metropolitan,"Los Angeles-Long Beach, CA",348
14000US08031004301,270,Denver Grocery (8th & Colorado),750 N Colorado Blvd,80206,Denver,CO,39.728535,-104.940409,1,rooftop,750,N Colorado Blvd,Denver,CO,Denver County,80206,US,Denver,2015,8,08031,820000,004301,3008,3,"Denver-Aurora-Lakewood, CO",19740,metropolitan,"Denver-Aurora, CO",216
14000US08005005614,272,Greenwood Village,5910 S University Blvd,80121,Greenwood Village,CO,39.608418,-104.958071,1,rooftop,5910,S University Blvd,Littleton,CO,Arapahoe County,80121,US,City of Littleton,2015,8,08005,845255,005614,3005,3,"Denver-Aurora-Lakewood, CO",19740,metropolitan,"Denver-Aurora, CO",216
14000US09001030200,273,Darien,436 Boston Post Rd.,6820,Darien,CT,41.084216,-73.463202,1,range_interpolation,436,Boston Post Rd,Darien,CT,Fairfield County,6820,US,TIGER/Line® dataset from the US Census Bureau,2015,9,09001,918850,030200,2009,2,"Bridgeport-Stamford-Norwalk, CT",14860,metropolitan,"New York-Newark, NY-NJ-CT-PA",408
14000US09001061000,274,Fairfield,2258 Black Rock Turnpike,6825,Fairfield,CT,41.182455,-73.253431,1,range_interpolation,2258,Black Rock Tpke,Fairfield,CT,Fairfield County,6825,US,TIGER/Line® dataset from the US Census Bureau,2015,9,09001,0,061000,3005,3,"Bridgeport-Stamford-Norwalk, CT",14860,metropolitan,"New York-Newark, NY-NJ-CT-PA",408
14000US09001020700,275,Stamford,1041 High Ridge Rd,6905,Stamford,CT,41.106892,-73.547503,1,rooftop,1041,High Ridge Rd,Stamford,CT,Fairfield County,6905,US,City of Stamford,2015,9,09001,973000,020700,3016,3,"Bridgeport-Stamford-Norwalk, CT",14860,metropolitan,"New York-Newark, NY-NJ-CT-PA",408
14000US09003496200,276,West Hartford,1489 New Britain Ave.,6110,West Hartford,CT,41.723722,-72.760079,1,rooftop,1489,New Britain Ave,West Hartford,CT,Hartford County,6110,US,Connecticut Geospatial Information Systems Council,2015,9,09003,925780,496200,4000,4,"Hartford-West Hartford-East Hartford, CT",25540,metropolitan,"Hartford-West Hartford, CT",278
14000US09001050500,277,Westport,400 Post Road East,6880,Westport,CT,41.140062,-73.352264,1,range_interpolation,400,Post Rd E,Westport,CT,Fairfield County,6880,US,TIGER/Line® dataset from the US Census Bureau,2015,9,09001,983500,050500,1002,1,"Bridgeport-Stamford-Norwalk, CT",14860,metropolitan,"New York-Newark, NY-NJ-CT-PA",408
14000US11001004300,278,Washington DC-14th St,1914 14th St NW,20009,Washington,DC,38.916101,-77.032246,1,rooftop,1914,14th St NW,Washington,DC,District of Columbia,20009,US,City of Washington,2015,11,11001,1150000,004300,2000,2,"Washington-Arlington-Alexandria, DC-VA-MD-WV",47900,metropolitan,"Washington-Baltimore-Arlington, DC-MD-VA-WV-PA",548
14000US12099006402,279,Delray Beach,1851 S Federal Hwy #500,33483,Delray Beach,FL,26.439208,-80.070293,1,rooftop,1851,S Federal Hwy,Delray Beach,FL,Palm Beach County,33483,US,Palm Beach County,2015,12,12099,1217100,006402,3001,3,"Miami-Fort Lauderdale-West Palm Beach, FL",33100,metropolitan,"Miami-Fort Lauderdale-Port St. Lucie, FL",370
14000US12021010205,280,Naples,10600 Tamiami Trail North,34108,Naples,FL,26.267744,-81.80074,0.8,rooftop,10600,Tamiami Trl N,Ochopee,FL,Collier County,34141,US,Collier,2015,12,12021,1251025,010205,2006,2,"Naples-Immokalee-Marco Island, FL",34940,metropolitan,"Cape Coral-Fort Myers-Naples, FL",162
14000US12099000803,281,Palm Beach Gardens,2560 PGA Blvd,33410,Palm Beach Gardens,FL,26.844554,-80.073765,1,range_interpolation,2560,Pga Blvd,West Palm Beach,FL,Palm Beach County,33410,US,TIGER/Line® dataset from the US Census Bureau,2015,12,12099,1276600,000803,2000,2,"Miami-Fort Lauderdale-West Palm Beach, FL",33100,metropolitan,"Miami-Fort Lauderdale-Port St. Lucie, FL",370
14000US12086007807,282,Pinecrest,9205 S Dixie Highway,33156,Miami,FL,25.684336,-80.312692,1,rooftop,9205,S Dixie Hwy,Miami,FL,Miami-Dade County,33156,US,Miami,2015,12,12086,1236100,007807,2006,2,"Miami-Fort Lauderdale-West Palm Beach, FL",33100,metropolitan,"Miami-Fort Lauderdale-Port St. Lucie, FL",370
14000US12057005800,284,Tampa,3808 W Swann Ave,33609,Tampa,FL,27.937241,-82.506742,1,rooftop,3808,W Swann Ave,Tampa,FL,Hillsborough County,33609,US, Loveland,2015,12,12057,1271000,005800,3012,3,"Tampa-St. Petersburg-Clearwater, FL",45300,metropolitan,0,0
14000US12099007758,285,Wellington,2877 South State Rd,33414,Wellington,FL,26.645659,-80.25144,0.22,place,0,0,West Palm Beach,FL,Palm Beach County,33414,US,TIGER/Line® dataset from the US Census Bureau,2015,12,12099,1276600,007758,3005,3,"Miami-Fort Lauderdale-West Palm Beach, FL",33100,metropolitan,"Miami-Fort Lauderdale-Port St. Lucie, FL",370
14000US12095015902,286,Winter Park,131 N Orlando Ave,32789,Winter Park,FL,28.598276,-81.365724,1,rooftop,131,N Orlando Ave,Winter Park,FL,Orange County,32789,US,Orange County,2015,12,12095,1278300,015902,1005,1,"Orlando-Kissimmee-Sanford, FL",36740,metropolitan,"Orlando-Deltona-Daytona Beach, FL",422
14000US17031803017,287,Arlington Heights,17 W. Rand Road,60004,Arlington Heights,IL,42.11314,-87.982543,1,rooftop,17,W Rand Rd,Arlington Heights,IL,Cook County,60004,US,Cook,2015,17,17031,1702154,803017,1010,1,"Chicago-Naperville-Elgin, IL-IN-WI",16980,metropolitan,"Chicago-Naperville, IL-IN-WI",176
14000US17089852606,288,Batavia,1942 West Fabyan Parkway #222,60510,Batavia,IL,41.863764,-88.338593,1,rooftop,1942,W Fabyan Pkwy,Batavia,IL,Kane County,60510,US,Kane,2015,17,17089,1704078,852606,2018,2,"Chicago-Naperville-Elgin, IL-IN-WI",16980,metropolitan,"Chicago-Naperville, IL-IN-WI",176
14000US17031081500,289,Chicago (River North),44 E. Ontario St.,60611,Chicago,IL,41.893445,-87.626635,1,range_interpolation,44,E Ontario St,Chicago,IL,Cook County,60611,US,TIGER/Line® dataset from the US Census Bureau,2015,17,17031,1714000,081500,2008,2,"Chicago-Naperville-Elgin, IL-IN-WI",16980,metropolitan,"Chicago-Naperville, IL-IN-WI",176
14000US17031832600,290,Chicago (Lincoln Park),1840 North Clybourn Avenue #200,60614,Chicago,IL,41.914376,-87.655154,1,rooftop,1840,N Clybourn Ave,Chicago,IL,Cook County,60614,US,City of Chicago,2015,17,17031,1714000,832600,2019,2,"Chicago-Naperville-Elgin, IL-IN-WI",16980,metropolitan,"Chicago-Naperville, IL-IN-WI",176
14000US17043844701,291,Downers Grove,122 Ogden Ave.,60515,Downers Grove,IL,41.809801,-87.990252,1,range_interpolation,122,Ogden Ave,Downers Grove,IL,DuPage County,60515,US,TIGER/Line® dataset from the US Census Bureau,2015,17,17043,1720591,844701,2018,2,"Chicago-Naperville-Elgin, IL-IN-WI",16980,metropolitan,"Chicago-Naperville, IL-IN-WI",176
14000US17031809900,292,Evanston,1211 Chicago Avenue,60202,Evanston,IL,42.03979,-87.680276,1,rooftop,1211,Chicago Ave,Evanston,IL,Cook County,60202,US,City of Evanston,2015,17,17031,1724582,809900,1008,1,"Chicago-Naperville-Elgin, IL-IN-WI",16980,metropolitan,"Chicago-Naperville, IL-IN-WI",176
14000US17043842100,293,Glen Ellyn,680 Roosevelt Rd.,60137,Glen Ellyn,IL,41.859536,-88.058398,0.7,range_interpolation,680,State Rte 38,Glen Ellyn,IL,DuPage County,60137,US,TIGER/Line® dataset from the US Census Bureau,2015,17,17043,1729756,842100,3017,3,"Chicago-Naperville-Elgin, IL-IN-WI",16980,metropolitan,"Chicago-Naperville, IL-IN-WI",176
14000US17031801902,294,Glenview,1407 Waukegan Road,60025,Glenview,IL,42.080734,-87.79723,1,rooftop,1407,Waukegan Rd,Glenview,IL,Cook County,60025,US,Cook,2015,17,17031,1729938,801902,3005,3,"Chicago-Naperville-Elgin, IL-IN-WI",16980,metropolitan,"Chicago-Naperville, IL-IN-WI",176
14000US17031819500,295,La Grange,25 North La Grange Road,60525,La Grange,IL,41.817067,-87.869391,1,rooftop,25,N La Grange Rd,La Grange,IL,Cook County,60525,US,Cook,2015,17,17031,1740767,819500,1009,1,"Chicago-Naperville-Elgin, IL-IN-WI",16980,metropolitan,"Chicago-Naperville, IL-IN-WI",176
14000US17097864411,296,Lake Zurich,735 W. Route 22**,60047,Lake Zurich,IL,42.188882,-88.108954,1,rooftop,735,W Il Route 22,Lake Zurich,IL,Lake County,60047,US,Lake,2015,17,17097,1741742,864411,2005,2,"Chicago-Naperville-Elgin, IL-IN-WI",16980,metropolitan,"Chicago-Naperville, IL-IN-WI",176
14000US17097863801,297,Libertyville,1600 S Milwaukee Ave,60048,Libertyville,IL,42.25513,-87.946841,1,rooftop,1600,S Milwaukee Ave,Libertyville,IL,Lake County,60048,US,Lake,2015,17,17097,1743250,863801,1035,1,"Chicago-Naperville-Elgin, IL-IN-WI",16980,metropolitan,"Chicago-Naperville, IL-IN-WI",176
14000US17031801500,298,Northbrook,127 Skokie Blvd.,60062,Northbrook,IL,42.149744,-87.797856,1,rooftop,127,Skokie Blvd,Northbrook,IL,Cook County,60062,US,Cook,2015,17,17031,1753481,801500,1008,1,"Chicago-Naperville-Elgin, IL-IN-WI",16980,metropolitan,"Chicago-Naperville, IL-IN-WI",176
14000US17031812301,299,Oak Park,483 N. Harlem Ave.,60301,Oak Park,IL,41.89006,-87.804914,1,rooftop,483,N Harlem Ave,Oak Park,IL,Cook County,60301,US,Cook,2015,17,17031,1754885,812301,2003,2,"Chicago-Naperville-Elgin, IL-IN-WI",16980,metropolitan,"Chicago-Naperville, IL-IN-WI",176
14000US17031824116,300,Orland Park,14924 S. La Grange Road,60462,Orland Park,IL,41.619136,-87.853715,1,range_interpolation,14924,S La Grange Rd,Orland Park,IL,Cook County,60462,US,TIGER/Line® dataset from the US Census Bureau,2015,17,17031,1756640,824116,2009,2,"Chicago-Naperville-Elgin, IL-IN-WI",16980,metropolitan,"Chicago-Naperville, IL-IN-WI",176
14000US17031805902,301,Park Ridge,190 North Northwest Highway,60068,Park Ridge,IL,42.037228,-87.843714,0.33,place,0,0,Park Ridge,IL,Cook County,60068,US,TIGER/Line® dataset from the US Census Bureau,2015,17,17031,1757875,805902,2002,2,"Chicago-Naperville-Elgin, IL-IN-WI",16980,metropolitan,"Chicago-Naperville, IL-IN-WI",176
14000US24031704803,303,Bethesda*,6831 Wisconsin Avenue,20815,Bethesda,MD,38.978262,-77.090915,1,rooftop,6831,Wisconsin Ave,Chevy Chase,MD,Montgomery County,20815,US,Statewide,2015,24,24031,2416620,704803,1007,1,"Washington-Arlington-Alexandria, DC-VA-MD-WV",47900,metropolitan,"Washington-Baltimore-Arlington, DC-MD-VA-WV-PA",548
14000US24027606706,304,Columbia*,6610 Marie Curie Dr. (Int. of 175 & 108),21075,Elkridge,MD,39.188299,-76.795655,1,rooftop,6610,Marie Curie Dr,Elkridge,MD,Howard County,21075,US,Howard,2015,24,24027,2425750,606706,3030,3,"Baltimore-Columbia-Towson, MD",12580,metropolitan,"Washington-Baltimore-Arlington, DC-MD-VA-WV-PA",548
14000US24031700713,305,Gaithersburg*,18270 Contour Rd.,20877,Gaithersburg,MD,39.15494,-77.200718,1,range_interpolation,18270,Contour Rd,Gaithersburg,MD,Montgomery County,20877,US,TIGER/Line® dataset from the US Census Bureau,2015,24,24031,2431175,700713,2009,2,"Washington-Arlington-Alexandria, DC-VA-MD-WV",47900,metropolitan,"Washington-Baltimore-Arlington, DC-MD-VA-WV-PA",548
14000US24005403701,306,Pikesville*,"1809 Reisterstown Road, Suite #121",21208,Pikesville,MD,39.387847,-76.735848,1,rooftop,1809,Reisterstown Rd,Pikesville,MD,Baltimore County,21208,US,Baltimore,2015,24,24005,2461400,403701,1021,1,"Baltimore-Columbia-Towson, MD",12580,metropolitan,"Washington-Baltimore-Arlington, DC-MD-VA-WV-PA",548
14000US24031701218,307,Rockville*,12268-H Rockville Pike,20852,Rockville,MD,39.057133,-77.122981,0.9,rooftop,12268,Rockville Pik,Rockville,MD,Montgomery County,20852,US,Montgomery,2015,24,24031,2467675,701218,3005,3,"Washington-Arlington-Alexandria, DC-VA-MD-WV",47900,metropolitan,"Washington-Baltimore-Arlington, DC-MD-VA-WV-PA",548
14000US24031701505,308,Silver Spring*,10741 Columbia Pike,20901,Silver Spring,MD,39.03144,-77.003581,1,rooftop,10741,Columbia Pik,Silver Spring,MD,Montgomery County,20901,US,Montgomery,2015,24,24031,2472450,701505,3017,3,"Washington-Arlington-Alexandria, DC-VA-MD-WV",47900,metropolitan,"Washington-Baltimore-Arlington, DC-MD-VA-WV-PA",548
14000US24005490900,309,Towson*,1 E. Joppa Rd.,21286,Towson,MD,39.401547,-76.601608,1,rooftop,1,E Joppa Rd,Towson,MD,Baltimore County,21286,US,Statewide,2015,24,24005,2478425,490900,2010,2,"Baltimore-Columbia-Towson, MD",12580,metropolitan,"Washington-Baltimore-Arlington, DC-MD-VA-WV-PA",548
14000US25017356500,310,Arlington*,1427 Massachusetts Ave.,2476,Arlington,MA,42.425348,-71.187915,1,rooftop,1427,Massachusetts Ave,Arlington,MA,Middlesex County,2476,US,"Office of Geographic Information (MassGIS), Commonwealth of Massachusetts, MassIT",2015,25,25017,2501605,356500,3019,3,"Boston-Cambridge-Newton, MA-NH",14460,metropolitan,"Boston-Worcester-Providence, MA-RI-NH-CT",148
14000US25025010701,311,Boston*,899 Boylston Street,2115,Boston,MA,42.348517,-71.084121,1,rooftop,899,Boylston St,Boston,MA,Suffolk County,2115,US,"Office of Geographic Information (MassGIS), Commonwealth of Massachusetts, MassIT",2015,25,25025,2507000,010701,3010,3,"Boston-Cambridge-Newton, MA-NH",14460,metropolitan,"Boston-Worcester-Providence, MA-RI-NH-CT",148
14000US25017332400,313,Burlington*,51 Middlesex Turnpike,1803,Burlington,MA,42.473684,-71.211286,1,rooftop,51,Middlesex Tpke,Burlington,MA,Middlesex County,1803,US,"Office of Geographic Information (MassGIS), Commonwealth of Massachusetts, MassIT",2015,25,25017,2509840,332400,2079,2,"Boston-Cambridge-Newton, MA-NH",14460,metropolitan,"Boston-Worcester-Providence, MA-RI-NH-CT",148
14000US25017354600,315,Cambridge (Fresh Pond)*,211 Alewife Brook Pkwy,2138,Cambridge,MA,42.390057,-71.143614,1,rooftop,211,Alewife Brook Pkwy,Cambridge,MA,Middlesex County,2138,US,"Office of Geographic Information (MassGIS), Commonwealth of Massachusetts, MassIT",2015,25,25017,2511000,354600,4008,4,"Boston-Cambridge-Newton, MA-NH",14460,metropolitan,"Boston-Worcester-Providence, MA-RI-NH-CT",148
14000US25021410100,316,Foxborough/Patriot Place,350 Patriot Place,2035,Foxborough,MA,42.086287,-71.270226,1,rooftop,350,Patriot Pl,Foxboro,MA,Norfolk County,2035,US,"Office of Geographic Information (MassGIS), Commonwealth of Massachusetts, MassIT",2015,25,25021,2524750,410100,2003,2,"Boston-Cambridge-Newton, MA-NH",14460,metropolitan,"Boston-Worcester-Providence, MA-RI-NH-CT",148
14000US25015821400,318,Hadley*,375 Russell Street,1035,Hadley,MA,42.357786,-72.549323,1,rooftop,375,Russell St,Hadley,MA,Hampshire County,1035,US,"Office of Geographic Information (MassGIS), Commonwealth of Massachusetts, MassIT",2015,25,25015,2527655,821400,4039,4,"Springfield, MA",44140,metropolitan,"Springfield-Greenfield Town, MA",521
14000US25023503101,319,Hanover*,1775 Washington Street,2339,Hanover,MA,42.143522,-70.840378,1,rooftop,1775,Washington St,Hanover,MA,Plymouth County,2339,US,"Office of Geographic Information (MassGIS), Commonwealth of Massachusetts, MassIT",2015,25,25023,2528250,503101,1045,1,"Boston-Cambridge-Newton, MA-NH",14460,metropolitan,"Boston-Worcester-Providence, MA-RI-NH-CT",148
14000US25023501201,320,Hingham*,5 Essington Drive,2043,Hingham,MA,42.212105,-70.884989,0.33,place,0,0,Hingham,MA,Plymouth County,2043,US,TIGER/Line® dataset from the US Census Bureau,2015,25,25023,2530175,501201,2033,2,"Boston-Cambridge-Newton, MA-NH",14460,metropolitan,"Boston-Worcester-Providence, MA-RI-NH-CT",148
14000US08031002801,321,Denver (7th & Logan),661 Logan Street,80203,Denver,CO,39.72677,-104.982543,1,rooftop,661,N Logan St,Denver,CO,Denver County,80203,US,Denver,2015,8,08031,820000,002801,3002,3,"Denver-Aurora-Lakewood, CO",19740,metropolitan,"Denver-Aurora, CO",216
14000US12001001521,322,Gainesville,3724 SW Archer Rd,32608,Gainesville,FL,29.623015,-82.379758,1,rooftop,3724,SW Archer Rd,Gainesville,FL,Alachua County,32608,US,City of Gainesville,2015,12,12001,1225175,001521,3029,3,"Gainesville, FL",23540,metropolitan,"Gainesville-Lake City, FL",264
14000US12073002410,323,Tallahassee,3425 Thomasville Rd,32309,Tallahassee,FL,30.503735,-84.249394,1,rooftop,3425,Thomasville Rd,Miccosukee Cpo,FL,Leon County,32309,US,Leon,2015,12,12073,1245300,002410,4014,4,"Tallahassee, FL",45220,metropolitan,"Tallahassee-Bainbridge, FL-GA",533
14000US25021457200,377,Needham Hts*,958 Highland Avenue,2494,Needham Hts,MA,42.292331,-71.235056,1,range_interpolation,958,Highland Ave,Needham,MA,Norfolk County,2494,US,TIGER/Line® dataset from the US Census Bureau,2015,25,25021,2544105,457200,1001,1,"Boston-Cambridge-Newton, MA-NH",14460,metropolitan,"Boston-Worcester-Providence, MA-RI-NH-CT",148
14000US25009210300,378,Peabody,"300 Andover Street, Suite 15",1960,Peabody,MA,42.549143,-70.957052,1,rooftop,300,Andover St,Peabody,MA,Essex County,1960,US,"Office of Geographic Information (MassGIS), Commonwealth of Massachusetts, MassIT",2015,25,25009,2552490,210300,2001,2,"Boston-Cambridge-Newton, MA-NH",14460,metropolitan,"Boston-Worcester-Providence, MA-RI-NH-CT",148
14000US25027739200,379,Shrewsbury*,77 D Boston Turnpike,1545,Shrewsbury,MA,42.275397,-71.751278,1,rooftop,77,Boston Tpke,Shrewsbury,MA,Worcester County,1545,US,"Office of Geographic Information (MassGIS), Commonwealth of Massachusetts, MassIT",2015,25,25027,2561800,739200,4032,4,"Worcester, MA-CT",49340,metropolitan,"Boston-Worcester-Providence, MA-RI-NH-CT",148
14000US25017374500,380,West Newton*,1121 Washington St.,2465,West Newton,MA,42.34987,-71.219415,1,rooftop,1121,Washington St,West Newton,MA,Middlesex County,2465,US,Town of Newton,2015,25,25017,2577185,374500,4010,4,"Boston-Cambridge-Newton, MA-NH",14460,metropolitan,"Boston-Worcester-Providence, MA-RI-NH-CT",148
14000US26125150800,381,Bloomfield Hills,6536 Telegraph Rd,48301,Bloomfield Hills,MI,42.543255,-83.286645,1,rooftop,6536,Telegraph Rd,Bloomfield Hills,MI,Oakland County,48301,US,Oakland,2015,26,26125,2609180,150800,4001,4,"Detroit-Warren-Dearborn, MI",19820,metropolitan,"Detroit-Warren-Ann Arbor, MI",220
14000US26163550200,382,Grosse Pointe,17028 Kercheval Ave.,48230,Grosse Pointe,MI,42.381765,-82.94034,0.7,street_center,0,Kercheval,Grosse Pointe,MI,Wayne County,48230,US,TIGER/Line® dataset from the US Census Bureau,2015,26,26163,2635480,550200,1006,1,"Detroit-Warren-Dearborn, MI",19820,metropolitan,"Detroit-Warren-Ann Arbor, MI",220
14000US26163560200,383,Northville,20490 Haggerty Road,48167,Northville,MI,42.436755,-83.434914,1,range_interpolation,20490,Haggerty Rd,Northville,MI,Wayne County,48167,US,TIGER/Line® dataset from the US Census Bureau,2015,26,26163,2658980,560200,1001,1,"Detroit-Warren-Dearborn, MI",19820,metropolitan,"Detroit-Warren-Ann Arbor, MI",220
14000US26125192700,384,Rochester Hills,3044 Walton Blvd.,48309,Rochester Hills,MI,42.682854,-83.194874,1,rooftop,3044,Walton Blvd,Rochester,MI,Oakland County,48309,US,City of Rochester,2015,26,26125,2669020,192700,2011,2,"Detroit-Warren-Dearborn, MI",19820,metropolitan,"Detroit-Warren-Ann Arbor, MI",220
14000US26125184100,385,Royal Oak,27880 Woodward Ave.,48067,Royal Oak,MI,42.495491,-83.163853,1,rooftop,27880,Woodward Ave,Royal Oak,MI,Oakland County,48067,US,Oakland,2015,26,26125,2670040,184100,1008,1,"Detroit-Warren-Dearborn, MI",19820,metropolitan,"Detroit-Warren-Ann Arbor, MI",220
14000US27109001100,386,Rochester,1200 16th St. SW,55902,Rochester,MN,44.000591,-92.480965,1,rooftop,1200,16th St SW,Rochester,MN,Olmsted County,55902,US,Olmsted,2015,27,27109,2754880,001100,2008,2,"Rochester, MN",40340,metropolitan,"Rochester-Austin, MN",462
14000US27123040704,387,Shoreview,1041 Red Fox Rd,55126,Shoreview,MN,45.057955,-93.144369,1,rooftop,1041,Red Fox Rd,Saint Paul,MN,Ramsey County,55126,US,Ramsey,2015,27,27123,2758000,040704,1008,1,"Minneapolis-St. Paul-Bloomington, MN-WI",33460,metropolitan,"Minneapolis-St. Paul, MN-WI",378
14000US27053022901,388,St. Louis Park,4500 Excelsior Blvd.,55416,St. Louis Park,MN,44.934471,-93.337229,1,rooftop,4500,Excelsior Blvd,Minneapolis,MN,Hennepin County,55416,US,Hennepin,2015,27,27053,2743000,022901,3012,3,"Minneapolis-St. Paul-Bloomington, MN-WI",33460,metropolitan,"Minneapolis-St. Paul, MN-WI",378
14000US27123036700,389,St. Paul,484 Lexington Parkway S.,55105,St. Paul,MN,44.926664,-93.146444,1,rooftop,484,Lexington Pkwy S,Saint Paul,MN,Ramsey County,55105,US,Ramsey,2015,27,27123,2758000,036700,3020,3,"Minneapolis-St. Paul-Bloomington, MN-WI",33460,metropolitan,"Minneapolis-St. Paul, MN-WI",378
14000US29189221628,390,Chesterfield,1679 Clarkson Road,63017,Chesterfield,MO,38.645048,-90.56636,1,rooftop,1679,Clarkson Rd,Chesterfield,MO,St. Louis County,63017,US,St Louis,2015,29,29189,2913600,221628,1048,1,"St. Louis, MO-IL",41180,metropolitan,"St. Louis-St. Charles-Farmington, MO-IL",476
14000US29189215102,391,Creve Coeur,11505 Olive Blvd.,63141,Creve Coeur,MO,38.671964,-90.436453,1,rooftop,11505,Olive Blvd,Saint Louis,MO,St. Louis County,63141,US,St Louis,2015,29,29189,2999189,215102,1047,1,"St. Louis, MO-IL",41180,metropolitan,"St. Louis-St. Charles-Farmington, MO-IL",476
14000US29189217701,392,Des Peres,13343 Manchester Rd.,63131,Des Peres,MO,38.601076,-90.467134,1,rooftop,13343,Manchester Rd,Saint Louis,MO,St. Louis County,63131,US,St Louis,2015,29,29189,2999189,217701,3038,3,"St. Louis, MO-IL",41180,metropolitan,"St. Louis-St. Charles-Farmington, MO-IL",476
14000US29095009900,393,Kansas City,8600 Ward Parkway,64114,Kansas City,MO,38.970959,-94.606784,1,rooftop,8600,Ward Pkwy,Kansas City,MO,Jackson County,64114,US,City of Kansas City,2015,29,29095,2938000,009900,1004,1,"Kansas City, MO-KS",28140,metropolitan,"Kansas City-Overland Park-Kansas City, MO-KS",312
14000US31055006805,394,Omaha,10305 Pacific St.,68114,Omaha,NE,41.248129,-96.074109,0.9,rooftop,10305,Pacific St,Omaha,NE,Douglas County,68124,US,Douglas,2015,31,31055,3137000,006805,1002,1,"Omaha-Council Bluffs, NE-IA",36540,metropolitan,"Omaha-Council Bluffs-Fremont, NE-IA",420
